stop_id,stop_code,stop_name,stop_desc,stop_lat,stop_lon,zone_id,stop_url,location_type,parent_station,stop_timezone,wheelchair_boarding
1AARD,5009,"AVRILLE - ARDENNE",,47.511486,-0.596012,,,0,place__ARD,,1
1ACAS,16233,"ACACIAS",,47.503646,-0.586375,,,0,place_1ACA,,1
1BAMA,24604,"BAMAKO",,47.452165,-0.556459,,,0,place__BAM,,1
1BASC,4827,"BASCULE",,47.508686,-0.591659,,,0,place_1BAS,,1
1BMAI,16196,"BERGES DE MAINE",,47.479341,-0.549382,,,0,place__BMA,,1
1BOTA,24128,"TERRA BOTANICA",,47.494224,-0.574617,,,0,place__BOT,,1
1BROY,32629,"BOIS DU ROY",,47.499605,-0.583159,,,0,place_1ROY,,1
1CAPU,29904,"CAPUCINS",,47.486888,-0.555233,,,0,place__CAP,,1
1CECO,519627,"CENTRE DE CONGRES",,47.474152,-0.546083,,,0,place__CCO,,1
1FMBL,11327,"FOCH MAISON BLEUE",,47.468992,-0.549756,,,0,place_CENTRE,,1
1HARA,24652,"FOCH HARAS",,47.466815,-0.552657,,,0,place_1HAR,,1
1HDVA,194430,"HÔTEL DE VILLE",,47.471695,-0.546791,,,0,place__HDV,,1
1HOPA,24731,"CHU - HOPITAL",,47.481385,-0.554158,,,0,place__HOP,,1
1HSAU,3016,"HAUTS DE SAINT AUBIN",,47.492152,-0.560422,,,0,place_1HSA,,1
1JE23,24624,"JEAN XXIII",,47.448607,-0.562932,,,0,place_1JEA,,1
1JMOU,4159,"JEAN MOULIN",,47.490467,-0.552195,,,0,place__MOU,,1
1JVIL,20509,"JEAN VILAR",,47.445072,-0.562326,,,0,place_1VIL,,1
1LAFA,31950,"PLACE LA FAYETTE",,47.460812,-0.554723,,,0,place_1LAF,,1
1LGAR,20910,"LES GARES",,47.464465,-0.555465,,,0,place_GARE,,1
1PMAY,17915,"PLATEAU DE MAYENNE",,47.495710,-0.580051,,,0,place_1MAY,,1
1STGI,23494,"SAINT GILLES",,47.506512,-0.589539,,,0,place_1STG,,1
1STRA,7319,"STRASBOURG",,47.456676,-0.554039,,,0,place_1STR,,1
1STSE,901361,"SAINT SERGE UNIVERSITE",,47.476135,-0.550670,,,0,place__SSE,,1
1VERN,25220,"VERNEAU",,47.492424,-0.567108,,,0,place__VER,,1
2ACAS,12080,"ACACIAS",,47.503703,-0.586270,,,0,place_2ACA,,1
2ANRO,32091,"ANGERS - ROSERAIE",,47.443924,-0.554027,,,0,place__ARO,,1
2BAMA,30251,"BAMAKO",,47.452110,-0.556370,,,0,place__BAM,,1
2BASC,3822,"BASCULE",,47.508781,-0.591492,,,0,place_2BAS,,1
2BMAI,28864,"BERGES DE MAINE",,47.479441,-0.549370,,,0,place__BMA,,1
2BOTA,22213,"TERRA BOTANICA",,47.494268,-0.574759,,,0,place__BOT,,1
2BROY,31784,"BOIS DU ROY",,47.499664,-0.583055,,,0,place_2ROY,,1
2CAPU,3726,"CAPUCINS",,47.486819,-0.555139,,,0,place__CAP,,1
2CECO,363258,"CENTRE DE CONGRES",,47.474266,-0.546100,,,0,place__CCO,,1
2FMBL,3788,"FOCH MAISON BLEUE",,47.468932,-0.549656,,,0,place_CENTRE,,1
2HARA,14426,"FOCH HARAS",,47.466749,-0.552567,,,0,place_2HAR,,1
2HDVA,184082,"HÔTEL DE VILLE",,47.471660,-0.546669,,,0,place__HDV,,1
2HOPA,13445,"CHU - HOPITAL",,47.481321,-0.554055,,,0,place__HOP,,1
2HSAU,29280,"HAUTS DE SAINT AUBIN",,47.492242,-0.560460,,,0,place_2HSA,,1
2JE23,30963,"JEAN XXIII",,47.448552,-0.562844,,,0,place_2JEA,,1
2JMOU,14673,"JEAN MOULIN",,47.490425,-0.552075,,,0,place__MOU,,1
2JVIL,4486,"JEAN VILAR",,47.444880,-0.562255,,,0,place_2VIL,,1
2LAFA,15573,"PLACE LA FAYETTE",,47.460830,-0.554606,,,0,place_2LAF,,1
2LGAR,11515,"LES GARES",,47.464494,-0.555350,,,0,place_GARE,,1
2PMAY,4961,"PLATEAU DE MAYENNE",,47.495760,-0.579940,,,0,place_2MAY,,1
2STGI,31945,"SAINT GILLES",,47.506242,-0.588975,,,0,place_2STG,,1
2STRA,16728,"STRASBOURG",,47.457518,-0.554059,,,0,place_2STR,,1
2STSE,175339,"SAINT SERGE UNIVERSITE",,47.476250,-0.550688,,,0,place__SSE,,1
2VERN,13983,"VERNEAU",,47.492517,-0.567162,,,0,place__VER,,1
AAMIPI,32237,"AMIPI",,47.463699,-0.626626,,,0,place_AAMIPI,,0
AAMIPI-E,28632,"AMIPI",,47.463783,-0.626675,,,0,place_AAMIPI,,0
AARD-7C,562,"AVRILLE - ARDENNE",,47.511027,-0.595431,,,0,place_ARDENN,,1
AARD-7E,27206,"AVRILLE - ARDENNE",,47.512074,-0.596647,,,0,place_ARDENN,,1
ABI,180,"AVICENNE",,47.481296,-0.688410,,,0,place_AVICEN,,0
ABI-E,931,"AVICENNE",,47.481266,-0.688869,,,0,place_AVICEN,,0
ACADEMIE,913399,"ACADEMIE",,47.467432,-0.559145,,,0,place_ACABLA,,0
ACAD-PLA,33737,"ACADEMIE",,47.468430,-0.558686,,,0,place_ACABLA,,0
ADEZIERE,1649,"AVRILLE ADEZIERE",,47.504950,-0.605053,,,0,place_DZIERE,,1
AIGREFOI,805210,"AIGREFOIN",,47.473258,-0.439654,,,0,place_AIGREF,,0
ALEROY,16814,"ANDRE LEROY",,47.464497,-0.548498,,,0,place_ANLERO,,1
ALLARD,27879,"ALLARD",,47.449534,-0.538747,,,0,place_ALLARD,,1
ALLARD-E,5528,"ALLARD",,47.448897,-0.538698,,,0,place_ALLARD,,1
ALLEMA-E,9078,"ALLEMAGNE",,47.527919,-0.599953,,,0,place_ALLEMA,,1
ALLEMAGN,7193,"ALLEMAGNE",,47.526667,-0.601923,,,0,place_ALLEMA,,1
ALLONNEA,16562,"ALLONNEAU",,47.485151,-0.527028,,,0,place_ALLONO,,1
ALLUME-E,6636,"ALLUMETTES",,47.444974,-0.502194,,,0,place_ALLU,,0
ALLUMETT,15447,"ALLUMETTES",,47.445270,-0.502320,,,0,place_ALLU,,0
ALSA-A,610546,"ALSACE",,47.470174,-0.550121,,,0,place_ALSACE,,0
ALSA-R,210951,"ALSACE",,47.470226,-0.550386,,,0,place_ALSACE,,0
ANAFRA-E,882585,"ANATOLE FRANCE",,47.531319,-0.613741,,,0,place_ANAFRA,,1
ANAFRAN,345518,"ANATOLE FRANCE",,47.531085,-0.613723,,,0,place_ANAFRA,,1
ANBRUE-E,648185,"ANDRE BRUEL",,47.526672,-0.468006,,,0,place_ABRUEL,,1
ANBRUEL,491458,"ANDRE BRUEL",,47.526587,-0.468124,,,0,place_ABRUEL,,1
ANDALA-E,587106,"GRAND LAUNAY",,47.461932,-0.387211,,,0,place_ANDLAU,,0
ANDALAUN,544772,"GRAND LAUNAY",,47.461916,-0.387439,,,0,place_ANDLAU,,0
ANDAMA-E,319038,"MAIRIE D'ANDARD",,47.456503,-0.397701,,,0,place_ANDARD,,0
ANDAMAIR,383609,"MAIRIE D'ANDARD",,47.456535,-0.398180,,,0,place_ANDARD,,0
ANDARE-E,503720,"REZEAU",,47.466847,-0.381857,,,0,place_ANDREZ,,0
ANDARESA,293715,"REZEAU",,47.467940,-0.378963,,,0,place_ANDREZ,,0
ANFRANCK,6103,"ANNE FRANK",,47.463559,-0.537773,,,0,place_ANNEFR,,1
ANFRAN-E,7909,"ANNE FRANK",,47.463465,-0.537766,,,0,place_ANNEFR,,1
ANLERO-E,14800,"ANDRE LEROY",,47.464626,-0.549028,,,0,place_ANLERO,,1
ANLEROY,29097,"ANDRE LEROY",,47.464661,-0.548248,,,0,place_ANLERO,,1
ANRO-11C,7919,"ANGERS - ROSERAIE",,47.444954,-0.551545,,,0,place__ARO,,0
ANRO-11E,17931,"ANGERS - ROSERAIE",,47.444875,-0.551926,,,0,place__ARO,,0
ANRO-5A,17458,"ANGERS - ROSERAIE",,47.444012,-0.553918,,,0,place__ARO,,1
ANRO-5B,12151,"ANGERS - ROSERAIE",,47.443776,-0.553672,,,0,place__ARO,,1
APPENT-E,20678,"APPENTIS",,47.445199,-0.546563,,,0,place_APPENT,,1
APPENTIS,30879,"APPENTIS",,47.445518,-0.546286,,,0,place_APPENT,,1
AQUA-A5A,17213,"AQUAVITA - CIRCULAIRE SENS A",,47.493399,-0.565286,,,0,place_AQUAVI,,1
AQUA-A5B,961964,"AQUAVITA - CIRCULAIRE SENS B",,47.493401,-0.565285,,,0,place_AQUAVI,,1
AQUA-D5A,55947,"AQUAVITA - CIRCULAIRE SENS A",,47.493407,-0.565537,,,0,place_AQUAVI,,1
AQUAVITA,52941,"AQUAVITA",,47.493401,-0.565285,,,0,place_AQUAVI,,1
AQUIT11,462834,"ALIENOR D'AQUITAINE",,47.462897,-0.615049,,,0,place_LACDEM,,1
AQUITA-E,14482,"ALIENOR D'AQUITAINE",,47.463023,-0.615073,,,0,place_LACDEM,,1
AQVI-D5B,96211,"AQUAVITA - CIRCULAIRE SENS B",,47.493497,-0.565528,,,0,place_AQUAVI,,1
ARAGO-E,26055,"ARAGON",,47.471732,-0.567569,,,0,place_FRONDE,,0
ARAGON,25304,"ARAGON",,47.471623,-0.567029,,,0,place_FRONDE,,0
ARBORE-E,21951,"ARBORETUM",,47.449385,-0.544430,,,0,place_ARBORE,,1
ARBORETU,32544,"ARBORETUM",,47.449317,-0.544143,,,0,place_ARBORE,,1
ARCAD-E,17259,"ARCADES",,47.507205,-0.516591,,,0,place_ARCADE,,0
ARCADES,24569,"ARCADES",,47.506927,-0.516858,,,0,place_ARCADE,,0
ARCEAU,15889,"ARCEAU",,47.471079,-0.519783,,,0,place_ARCEAU,,1
ARCEAU-E,16444,"ARCEAU",,47.470973,-0.519837,,,0,place_ARCEAU,,1
AROBA-E,31354,"AROBASE",,47.463994,-0.531698,,,0,place_AROBAS,,0
AROBASE,21097,"AROBASE",,47.464591,-0.531546,,,0,place_AROBAS,,0
ARTAUD,22172,"ARTAUD",,47.434046,-0.610954,,,0,place_STABOU,,1
ARTAUD-E,14855,"ARTAUD",,47.433341,-0.610894,,,0,place_STABOU,,1
ATHLET-E,12108,"ATHLETIS",,47.441471,-0.528349,,,0,place_ATHLET,,1
ATHLETIS,30156,"ATHLETIS",,47.441615,-0.527949,,,0,place_ATHLET,,1
ATOLL,21638,"L'ATOLL",,47.483026,-0.632254,,,0,place_ATOL38,,0
ATOLL AR,673486,"BEAUCOUZE L'ATOLL",,47.484232,-0.626432,,,0,place_ATOLL,,1
ATOLLBEA,20041,"BEAUCOUZE L'ATOLL",,47.484232,-0.626432,,,0,place_ATOLL,,1
ATOLL-E,43346,"L'ATOLL",,47.483180,-0.632515,,,0,place_ATOL38,,0
ATSVIL-E,180300,"ECOLE ACCUEIL VILLEVEQUE",,47.559509,-0.424173,,,0,place_VILACC,,0
ATSVILLE,329831,"ECOLE ACCUEIL VILLEVEQUE",,47.559478,-0.424182,,,0,place_VILACC,,0
AUBEPI-E,9385,"AUBEPINE",,47.461562,-0.495899,,,0,place_AUBEPI,,1
AUBEPINE,8536,"AUBEPINE",,47.461705,-0.495984,,,0,place_AUBEPI,,1
AUBERD-E,830731,"AUBERDERIE",,47.537906,-0.478534,,,0,place_AUBERD,,0
AUBERDER,747618,"AUBERDERIE",,47.537885,-0.478691,,,0,place_AUBERD,,0
AUBRIA-E,16914,"AUBRIAIS",,47.515750,-0.667693,,,0,place_AUBRIA,,0
AUBRIAIS,18000,"AUBRIAIS",,47.515797,-0.667935,,,0,place_AUBRIA,,0
AUBRY,7225,"AUBRY",,47.440983,-0.552069,,,0,place_AUBRY,,0
AUBRY-E,48579,"AUBRY",,47.441839,-0.552229,,,0,place_AUBRY,,0
AULNAI-E,172702,"LES AULNAIES",,47.586835,-0.439987,,,0,place_AULNAI,,0
AULNAIES,193602,"LES AULNAIES",,47.586747,-0.439937,,,0,place_AULNAI,,0
AULNERIE,937759,"AULNERIE",,47.587453,-0.492889,,,0,place_AULNER,,0
AURI-A5B,173687,"AURIOL",,47.491289,-0.564935,,,0,place_VERNEA,,1
AUTHIO-E,24408,"AUTHION",,47.431570,-0.528831,,,0,place_AUTHIO,,1
AUTHION,22482,"AUTHION",,47.431515,-0.528398,,,0,place_AUTHIO,,1
AUTRIC-E,30185,"AUTRICHE",,47.522911,-0.609403,,,0,place_AUTRIC,,1
AUTRICH,18326,"AUTRICHE",,47.522984,-0.609961,,,0,place_AUTRIC,,1
AUVERG-E,3123,"AUVERGNE",,47.490197,-0.530055,,,0,place_AUVERG,,1
AUVERGNE,2306,"AUVERGNE",,47.489505,-0.530824,,,0,place_AUVERG,,1
AVALOUP,351192,"AVALOUP",,47.456890,-0.437023,,,0,place_AVALOU,,0
AVENEU-E,3623,"AVENUE DE L'EUROPE",,47.528212,-0.594799,,,0,place_AVEURO,,1
AVENEURO,31525,"AVENUE DE L'EUROPE",,47.527947,-0.595780,,,0,place_AVEURO,,1
BACHEM-E,157642,"BAS CHEMIN",,47.424905,-0.384269,,,0,place_BASCHE,,0
BACHOUAS,294727,"BACHOUASNE",,47.467853,-0.433422,,,0,place_BACHOU,,0
BACHOU-E,602037,"BACHOUASNE",,47.467774,-0.433359,,,0,place_BACHOU,,0
BAHONN-E,1159,"BAHONNEAU",,47.453429,-0.482950,,,0,place_BAHONN,,0
BAHONNEA,26142,"BAHONNEAU",,47.453189,-0.483239,,,0,place_BAHONN,,0
BALANDE,29121,"BASSE LANDE",,47.505124,-0.594820,,,0,place_BALAND,,1
BALAND-E,30198,"BASSE LANDE",,47.505460,-0.595349,,,0,place_BALAND,,1
BALLOUR,23505,"BALLOUR",,47.483243,-0.562464,,,0,place_BALLOU,,0
BANCHA-E,25865,"BANCHAIS",,47.485523,-0.511796,,,0,place_STMANS,,1
BANCHAIS,25147,"BANCHAIS",,47.485298,-0.512160,,,0,place_STMANS,,1
BANCST-E,2573,"BANCHAIS",,47.485819,-0.512468,,,0,place_STMANS,,0
BANCSTMA,20610,"BANCHAIS",,47.486004,-0.512375,,,0,place_STMANS,,0
BARBOT-E,1092,"BARBOTTERIE",,47.400873,-0.525167,,,0,place_BARBOT,,1
BARBOTER,24521,"BARBOTTERIE",,47.400469,-0.524769,,,0,place_BARBOT,,1
BARON AR,22071,"SAINT AUBIN LA SALLE",,47.489696,-0.503569,,,0,place_BARONN,,0
BARON DE,133133,"SAINT AUBIN LA SALLE",,47.489696,-0.503609,,,0,place_BARONN,,0
BARONERI,30230,"SAINT AUBIN LA SALLE",,47.489414,-0.503201,,,0,place_BARONN,,0
BARONN-E,693977,"SAINT AUBIN LA SALLE",,47.489312,-0.504080,,,0,place_BARONN,,1
BARONNER,2861,"SAINT AUBIN LA SALLE",,47.489312,-0.504080,,,0,place_BARONN,,1
BARRA,21480,"BARRA",,47.483717,-0.563930,,,0,place_BARRA,,1
BARRA -E,2442,"BARRA",,47.483823,-0.563729,,,0,place_BARRA,,1
BASCHE-E,884139,"BASSE CHESNAIE",,47.573791,-0.677447,,,0,place_BASSCH,,0
BASCHEM,948490,"BAS CHEMIN",,47.425014,-0.384247,,,0,place_BASCHE,,0
BASCHESN,652997,"BASSE CHESNAIE",,47.573899,-0.677436,,,0,place_BASSCH,,0
BASMOR-E,8169,"BAS MORTIER",,47.515320,-0.474483,,,0,place_BASMOR,,1
BASMORTI,7483,"BAS MORTIER",,47.515371,-0.474625,,,0,place_BASMOR,,1
BAUDON,289578,"BAUDON",,47.539386,-0.579310,,,0,place_BAUDON,,0
BAUDON-E,732813,"BAUDON",,47.539292,-0.579389,,,0,place_BAUDON,,0
BAUDRA-E,11299,"BAUDRAIRIE",,47.437755,-0.507504,,,0,place_GUIRON,,1
BAUDRAI,19950,"BAUDRAIRIE",,47.438037,-0.507103,,,0,place_BAUDRA,,1
BAUNBR-E,58353,"CHÂTEAU DE BRIANÇON",,47.503388,-0.351694,,,0,place_BRIANC,,0
BAUNBRIA,109894,"CHÂTEAU DE BRIANÇON",,47.503481,-0.351515,,,0,place_BRIANC,,0
BAUNCE-E,928925,"BAUNE CENTRE RD 116",,47.499283,-0.318599,,,0,place_BAUN,,0
BAUNCENT,353041,"BAUNE CENTRE RD 116",,47.499427,-0.318602,,,0,place_BAUN,,0
BBRANC-E,27533,"BELLEBRANCHE",,47.528251,-0.528310,,,0,place_BBRANC,,0
BBRANCHE,22762,"BELLEBRANCHE",,47.528127,-0.528311,,,0,place_BBRANC,,0
BEADI-AR,10612,"MAIRIE DE BEAUCOUZE",,47.474621,-0.630088,,,0,place_BEADIM,,0
BEADIM,8391,"MAIRIE DE BEAUCOUZE",,47.474534,-0.630126,,,0,place_BEADIM,,0
BEAUC AR,29830,"BEAUCOUZE HAUTE ROCHE",,47.470313,-0.625168,,,0,place_BEAUCO,,0
BEAUCOUZ,28687,"BEAUCOUZE HAUTE ROCHE",,47.470313,-0.625168,,,0,place_BEAUCO,,0
BEAUFI-E,2771,"BEAUMANOIR",,47.451899,-0.510452,,,0,place_BEAUMA,,0
BEAULI-E,12880,"BEAULIEU",,47.495464,-0.436670,,,0,place_BEAULI,,0
BEAULIEU,4126,"BEAULIEU",,47.495526,-0.437026,,,0,place_BEAULI,,0
BEAUMAN,27618,"BEAUMANOIR",,47.451543,-0.510523,,,0,place_BEAUMA,,0
BEAUM-E,3588,"BEAUMANOIR",,47.451305,-0.510725,,,0,place_BEAUMA,,0
BEAURE-E,6393,"BEAUREPAIRE",,47.474004,-0.559487,,,0,place_BEAURE,,0
BEAUREPA,15816,"BEAUREPAIRE",,47.473985,-0.559654,,,0,place_BEAURE,,0
BEAUVA-E,11101,"BEAUVAL",,47.451682,-0.551264,,,0,place_BEAUVN,,0
BEAUVAL,9892,"BEAUVAL",,47.451403,-0.550429,,,0,place_BEAUVN,,0
BECKE,58108,"BECKER",,47.538835,-0.622005,,,0,place_BECKER,,1
BECK-E,67197,"BECKER",,47.538824,-0.622184,,,0,place_BECKER,,1
BEDAUD-E,5506,"BEDAUDIERE",,47.501358,-0.393321,,,0,place_BEDAUD,,0
BEDAUDIE,26883,"BEDAUDIERE",,47.501333,-0.394999,,,0,place_BEDAUD,,0
BEDIER,16246,"BEDIER",,47.450112,-0.552650,,,0,place_BEDIER,,0
BEDIER-E,14067,"BEDIER",,47.449912,-0.552761,,,0,place_BEDIER,,0
BELAIR,17130,"BEL AIR",,47.529838,-0.606973,,,0,place_BELAIR,,1
BELAIR-E,15243,"BEL AIR",,47.529251,-0.606223,,,0,place_BELAIR,,1
BELFON-E,32395,"MAISON DES ARTS",,47.471701,-0.537442,,,0,place_MAIART,,1
BELFONTA,31709,"MAISON DES ARTS",,47.471851,-0.537747,,,0,place_MAIART,,1
BELLAN-E,32424,"BELLANGERIE",,47.482347,-0.684534,,,0,place_BELLAN,,0
BELLANGE,8582,"BELLANGERIE",,47.482203,-0.684891,,,0,place_BELLAN,,0
BELLCO-E,536209,"CORNE BELLEVUE",,47.473545,-0.346383,,,0,place_BELVUE,,0
BELLCORN,275985,"CORNE BELLEVUE",,47.473610,-0.346381,,,0,place_BELVUE,,0
BELLVUTR,30214,"BELLEVUE",,47.448196,-0.506884,,,0,place_BELLEV,,1
BELNOUE,672416,"BELLENOUE",,47.420600,-0.300998,,,0,place_BELNOU,,0
BELOEI-E,15961,"BEL OEIL",,47.427039,-0.556771,,,0,place_BELOEI,,0
BELOEIL,7658,"BEL OEIL",,47.426686,-0.556662,,,0,place_BELOEI,,0
BELPOU-E,21861,"BELLE POULE",,47.428427,-0.527754,,,0,place_BELLEP,,0
BELPOULE,21306,"BELLE POULE",,47.427888,-0.527154,,,0,place_BELLEP,,0
BELVTR-E,29169,"BELLEVUE",,47.447850,-0.507966,,,0,place_BELLEV,,1
BENE,3624,"MONTREUIL JUIGNE - BENE",,47.541165,-0.609630,,,0,place_JUIGNE,,1
BENE-E,27645,"MONTREUIL JUIGNE - BENE",,47.541120,-0.609456,,,0,place_JUIGNE,,1
BESNARDI,96684,"BESNARDIERE",,47.479730,-0.544374,,,0,place_BESNAR,,0
BEURRI-E,23326,"BEURRIERE",,47.497355,-0.589230,,,0,place_BEURRE,,1
BEURRIER,21726,"BEURRIERE",,47.497569,-0.589541,,,0,place_BEURRE,,1
BIAIS,889875,"BIAIS",,47.584722,-0.539329,,,0,place_BIAIS,,0
BIAIS-E,841213,"BIAIS",,47.584779,-0.539434,,,0,place_BIAIS,,0
BICHO.-E,991,"BICHON",,47.479300,-0.564668,,,0,place_BICHON,,1
BICHON,27019,"BICHON",,47.478730,-0.564193,,,0,place_BICHON,,1
BICHON.,7036,"BICHON",,47.479329,-0.564851,,,0,place_BICHON,,1
BICHON-E,20435,"BICHON",,47.479236,-0.563642,,,0,place_BICHON,,1
BIGOT-E,21778,"BIGOT",,47.482320,-0.560786,,,0,place_BIGOT,,1
BIOP-E,48952,"BIOPOLE",,47.482015,-0.496282,,,0,place_BIOPOL,,1
BIOPOL,13485,"BIOPOLE",,47.482233,-0.496533,,,0,place_BIOPOL,,1
BIRGTEC,17769,"BIRGE",,47.474707,-0.519892,,,0,place_BIRGE,,1
BIRGTE-E,13020,"BIRGE",,47.475222,-0.519773,,,0,place_BIRGE,,1
BLANDEAU,7587,"BLANDEAU",,47.457523,-0.543312,,,0,place_BLANDE,,1
BLANDE-E,2217,"BLANDEAU",,47.457386,-0.543217,,,0,place_BLANDE,,1
BLERIO-E,3197,"BLERIOT",,47.486142,-0.563437,,,0,place_BLERIO,,1
BLERIOT,22166,"BLERIOT",,47.485973,-0.563643,,,0,place_BLERIO,,1
BLITOU-E,8054,"BLITOURNE",,47.527410,-0.434068,,,0,place_BLITOU,,0
BLITOURN,8555,"BLITOURNE",,47.527103,-0.434297,,,0,place_BLITOU,,0
BMAI-9C,14427,"BERGES DE MAINE",,47.478749,-0.549624,,,0,place_BMAINE,,1
BMAI-9E,11244,"BERGES DE MAINE",,47.478509,-0.548904,,,0,place_BMAINE,,1
BMARZE-E,10489,"BASSE MARZELLE",,47.341696,-0.525002,,,0,place_BMAR,,0
BMARZELL,29922,"BASSE MARZELLE",,47.341845,-0.524599,,,0,place_BMAR,,0
BMOTTE,25850,"BELLE MOTTE",,47.531091,-0.516575,,,0,place_BELMOT,,0
BMOTTE-E,11002,"BELLE MOTTE",,47.530981,-0.516524,,,0,place_BELMOT,,0
BODINI-E,298774,"BODINIERE",,47.585439,-0.447124,,,0,place_BODIN,,0
BODINIER,906273,"BODINIERE",,47.585453,-0.447282,,,0,place_BODIN,,0
BOHABRAI,38658,"ROUTE DE BRAIN",,47.421427,-0.399269,,,0,place_BOHBRA,,0
BOHABR-E,377290,"ROUTE DE BRAIN",,47.421471,-0.399114,,,0,place_BOHBRA,,0
BOHACE-E,374732,"CENDREUSE",,47.422276,-0.385158,,,0,place_BOHCEN,,0
BOHACEND,953348,"CENDREUSE",,47.422421,-0.384953,,,0,place_BOHCEN,,0
BOHASA-E,429073,"CHEMIN SALETTE",,47.424605,-0.389309,,,0,place_CHESAL,,0
BOHASALE,300213,"CHEMIN SALETTE",,47.424704,-0.388942,,,0,place_CHESAL,,0
BOIRES,904270,"LES BOIRES",,47.410850,-0.296001,,,0,place_BOIRES,,0
BOISABBE,1559,"BOIS L'ABBE",,47.490304,-0.514225,,,0,place_BOISAB,,0
BOISAB-E,2212,"BOIS L'ABBE",,47.490362,-0.514024,,,0,place_BOISAB,,0
BOISEP-E,617836,"LE BOIS D'EPINARD",,47.474442,-0.330299,,,0,place_BOIEPI,,0
BOISEPI2,142312,"LE BOIS D'EPINARD",,47.474589,-0.330259,,,0,place_BOIEPI,,0
BOISHO-E,277487,"BOIS DE L'HOPITAL",,47.470435,-0.459277,,,0,place_BOISHO,,0
BOISHOPI,778313,"BOIS DE L'HOPITAL",,47.470542,-0.459278,,,0,place_BOISHO,,0
BOISNERI,923534,"LA BOISNERIE",,47.511524,-0.360042,,,0,place_BOISNE,,0
BOISPOUI,393328,"BOIS DE POUILLE",,47.423239,-0.687602,,,0,place_BOIPOU,,0
BOISRA-E,4209,"BOISRAME",,47.478256,-0.584697,,,0,place_BOISRA,,1
BOISRAME,22086,"BOISRAME",,47.478299,-0.584799,,,0,place_BOISRA,,1
BONNERIE,790406,"BONNERIE",,47.522882,-0.446449,,,0,place_BONNER,,0
BONPLA-E,542285,"BONPLAND",,47.514547,-0.590885,,,0,place_BONPLA,,1
BONPLAND,204457,"BONPLAND",,47.514589,-0.589588,,,0,place_BONPLA,,1
BOPON-E,8578,"BOUCHEMAINE PONT",,47.420527,-0.610593,,,0,place_PONBOU,,0
BOPONT,5303,"BOUCHEMAINE PONT",,47.420645,-0.610372,,,0,place_PONBOU,,0
BOREAU,22327,"BOREAU",,47.475261,-0.546194,,,0,place_BOREAU,,1
BOREAU-E,806695,"BOREAU",,47.475299,-0.545847,,,0,place_BOREAU,,0
BOSCH,10110,"BOIS RINIER",,47.476582,-0.497989,,,0,place_BOISRI,,0
BOSCH -E,8650,"BOIS RINIER",,47.476432,-0.497398,,,0,place_BOISRI,,0
BOSQUE-E,9680,"BOSQUET",,47.409779,-0.524831,,,0,place_BOSQUE,,0
BOSQUET,13421,"BOSQUET",,47.410024,-0.524358,,,0,place_BOSQUE,,0
BOUCHE-E,10804,"BOUCHEMAINE CENTRE",,47.421642,-0.610533,,,0,place_BOUCHE,,1
BOUCHEM,9302,"BOUCHEMAINE CENTRE",,47.421757,-0.610429,,,0,place_BOUCHE,,1
BOUGO.-E,10871,"BOURGONNIER",,47.461608,-0.541195,,,0,place_BOURGO,,1
BOUGONNI,27073,"BOURGONNIER",,47.462174,-0.542227,,,0,place_BOURGO,,1
BOULLE,7334,"BOULLE",,47.486717,-0.628579,,,0,place_BOULLE,,1
BOULLE-E,15478,"BOULLE",,47.486505,-0.628691,,,0,place_BOULLE,,1
BOURG,25980,"BOURG",,47.590709,-0.555365,,,0,place_SOUBOU,,0
BOURG-E,14979,"BOURG",,47.590757,-0.555217,,,0,place_SOUBOU,,0
BOURGLAC,28777,"BOURG LA CROIX",,47.450806,-0.523737,,,0,place_BOURGL,,0
BOURGL-E,178374,"BOURG LA CROIX",,47.450730,-0.523816,,,0,place_BOURGL,,0
BOURJOLY,84254,"BOURG JOLY",,47.408872,-0.313344,,,0,place_BOUJOL,,0
BOURRELI,385547,"BOURRELIERE",,47.381943,-0.564033,,,0,place_BOURRE,,0
BOURSE,18560,"BOURSE",,47.442828,-0.495440,,,0,place_BOURSE,,0
BOURSE-E,19507,"BOURSE",,47.442536,-0.495088,,,0,place_BOURSE,,0
BOUTEI-E,117791,"BOUTEILLERIE",,47.479805,-0.432006,,,0,place_BOUTEI,,0
BOUTEILL,602328,"BOUTEILLERIE",,47.479852,-0.432137,,,0,place_BOUTEI,,0
BOUTHO-E,12112,"BOUCHE THOMAS",,47.444509,-0.550411,,,0,place_BOUCTH,,1
BOUTHOMA,29965,"BOUCHE THOMAS",,47.444910,-0.550044,,,0,place_BOUCTH,,1
BOUVET,3637,"BOUVET",,47.562726,-0.675295,,,0,place_BOUVET,,0
BOUVET-E,30358,"BOUVET",,47.563321,-0.675793,,,0,place_BOUVET,,0
BPASTE-E,11261,"BON PASTEUR",,47.470486,-0.569730,,,0,place_BPASTE,,0
BPASTEUR,29906,"BON PASTEUR",,47.470564,-0.568380,,,0,place_BPASTE,,0
BRAI8MAI,789925,"PLACE DU 8 MAI",,47.445994,-0.412015,,,0,place_BRAIN8,,0
BRAI8M-E,562043,"PLACE DU 8 MAI",,47.445926,-0.412117,,,0,place_BRAIN8,,0
BRAIBO-E,348073,"CROIX DE BOIS",,47.449010,-0.424441,,,0,place_CROBOI,,0
BRAIBOIS,551743,"CROIX DE BOIS",,47.449095,-0.424396,,,0,place_CROBOI,,0
BRAICO-E,837119,"CROIX COMBEAU",,47.453695,-0.408351,,,0,place_COMBEA,,0
BRAICOMB,699137,"CROIX COMBEAU",,47.454293,-0.408484,,,0,place_COMBEA,,0
BRAINA-E,364514,"CRÉMAILLÈRE D'ARGENT",,47.465282,-0.433265,,,0,place_ARGENT,,1
BRAINARG,933848,"CRÉMAILLÈRE D'ARGENT",,47.465321,-0.433171,,,0,place_ARGENT,,0
BRAINNAR,776186,"NARCE",,47.448874,-0.429982,,,0,place_NARCE,,0
BRAINN-E,145513,"NARCE",,47.448579,-0.431165,,,0,place_NARCE,,0
BRARDIER,974048,"BRARDIERE",,47.582185,-0.494121,,,0,place_BRARDI,,0
BRASSE-E,25269,"BRASSENS",,47.494884,-0.587235,,,0,place_BRASSE,,1
BRASSENS,351,"BRASSENS",,47.494139,-0.586439,,,0,place_BRASSE,,1
BREMON-E,25430,"GARES BREMONT",,47.465969,-0.559297,,,0,place_GARE,,1
BRETEA-E,89029,"BRETEAU",,47.573645,-0.437244,,,0,place_BRETEA,,0
BRETEAU,22377,"BRETEAU",,47.573784,-0.437338,,,0,place_BRETEA,,0
BRGPAI-E,12036,"BOURG DE PAILLE",,47.474869,-0.624666,,,0,place_BRGPAI,,1
BRGPAILL,10958,"BOURG DE PAILLE",,47.474358,-0.624940,,,0,place_BRGPAI,,1
BRIOLLAY,14848,"MAIRIE DE BRIOLLAY",,47.563657,-0.507705,,,0,place_BRIOLL,,0
BRIOLL-E,24952,"MAIRIE DE BRIOLLAY",,47.563506,-0.507313,,,0,place_BRIOLL,,0
BRISEP-E,3496,"BRISEPOTIERE",,47.479348,-0.527253,,,0,place_BRISEP,,1
BRISEPOT,2222,"BRISEPOTIERE",,47.479537,-0.527283,,,0,place_BRISEP,,1
BROCHONS,294849,"BROCHON",,47.421952,-0.327366,,,0,place_BROCHO,,0
BRULETTE,686700,"LA BRULETTE",,47.579995,-0.440686,,,0,place_BRULET,,0
BSOLEI-E,12061,"BEAU SOLEIL",,47.426713,-0.721350,,,0,place_BSOLEI,,0
BSOLEIL,30366,"BEAU SOLEIL",,47.426576,-0.721257,,,0,place_BSOLEI,,0
BUCHET-E,306514,"BUCHETIERE",,47.559747,-0.428126,,,0,place_BUCHE,,0
BUCHETIE,736317,"BUCHETIERE",,47.559684,-0.428279,,,0,place_BUCHE,,0
BUISBE-E,234869,"LES BUISSONS BELLES",,47.447951,-0.421034,,,0,place_BUIBEL,,0
BUISBELL,40296,"LES BUISSONS BELLES",,47.448036,-0.420989,,,0,place_BUIBEL,,0
BUISSO-E,5587,"TRELAZE BUISSON",,47.441901,-0.483960,,,0,place_BUISSO,,1
BUISSON,3856,"TRELAZE BUISSON",,47.442039,-0.484633,,,0,place_BUISSO,,1
BVALLE-E,29950,"BASSES VALLEES",,47.579055,-0.499698,,,0,place_BVALLE,,0
BVALLEES,31943,"BASSES VALLEES",,47.579336,-0.499741,,,0,place_BVALLE,,0
CALAIS,775835,"CALAIS",,47.461997,-0.432557,,,0,place_CALAIS,,0
CAMELIAS,11696,"CAMELIA",,47.471293,-0.518956,,,0,place_CAME,,1
CAMELI-E,10436,"CAMELIA",,47.471343,-0.519236,,,0,place_CAME,,1
CAMLAC-E,1059,"LAC DE MAINE CAMPING",,47.457702,-0.597228,,,0,place_CAMLAC,,1
CAMLACMA,276,"LAC DE MAINE CAMPING",,47.458118,-0.596992,,,0,place_CAMLAC,,1
CAMPBO-E,13123,"CAMPING DE BOUCHEMAINE",,47.419291,-0.611639,,,0,place_BOUCAM,,1
CAMPBOUC,11882,"CAMPING DE BOUCHEMAINE",,47.419392,-0.611368,,,0,place_BOUCAM,,1
CAMPJU-E,996,"CAMPING DE JUIGNE",,47.537139,-0.616849,,,0,place_JUICAM,,0
CAMPJUIG,7458,"CAMPING DE JUIGNE",,47.537566,-0.616886,,,0,place_JUICAM,,0
CAMUS.05,9583,"CAMUS",,47.485242,-0.575873,,,0,place_CAMUS,,1
CAMUS5-E,20823,"CAMUS",,47.484968,-0.575759,,,0,place_CAMUS,,1
CANTCH-E,833087,"CHAMP FLEURI CANTENAY",,47.537297,-0.571154,,,0,place_CHFLCA,,0
CANTCHFL,735372,"CHAMP FLEURI CANTENAY",,47.537190,-0.571130,,,0,place_CHFLCA,,0
CANTPA-E,936930,"PATIS",,47.540367,-0.582375,,,0,place_PATCAN,,0
CANTPAT,800212,"PATIS",,47.540477,-0.582388,,,0,place_PATCAN,,0
CAPU8-C,32069,"CAPUCINS",,47.487437,-0.554853,,,0,place_CAPUCI,,1
CAPU8-E,21219,"CAPUCINS",,47.487415,-0.554497,,,0,place_CAPUCI,,1
CARCIT-E,8361,"CARREFOUR ST SERGE",,47.487632,-0.543143,,,0,place_CARREF,,1
CARCITR,784,"CARREFOUR ST SERGE",,47.487174,-0.543685,,,0,place_CARREF,,1
CARLIN-E,21252,"LINNE",,47.446481,-0.547785,,,0,place_CARLIN,,0
CARLINNE,20077,"LINNE",,47.446561,-0.547592,,,0,place_CARLIN,,0
CARMET,9979,"JEAN CARMET",,47.400262,-0.543626,,,0,place_CARMET,,1
CARMET-E,16860,"JEAN CARMET",,47.400575,-0.543148,,,0,place_CARMET,,1
CARREA-E,19826,"CARREAUX",,47.512066,-0.471417,,,0,place_CARREA,,0
CARREAUX,25276,"CARREAUX",,47.512565,-0.471944,,,0,place_CARREA,,0
CARRF5B,9318,"CARREFOUR ST SERGE",,47.488084,-0.542511,,,0,place_CARREF,,1
CARRSS-E,6897,"CARREFOUR ST SERGE",,47.488125,-0.543509,,,0,place_CARREF,,1
CATHED-E,992168,"COLLEGE LA CATHEDRALE",,47.484865,-0.540829,,,0,place_CATHED,,0
CATHEDRA,837413,"COLLEGE LA CATHEDRALE",,47.484856,-0.540829,,,0,place_CATHED,,0
CCADEA,5701,"CROIX CADEAU",,47.519948,-0.609453,,,0,place_CCADEA,,0
CCADEA-E,3576,"CROIX CADEAU",,47.520229,-0.609551,,,0,place_CCADEA,,1
CCADE-IR,669054,"CROIX CADEAU",,47.517612,-0.608019,,,0,place_CCADEA,,1
CCBGPAI,953694,"BOURG DE PAILLE",,47.473272,-0.623241,,,0,place_BGPAIL,,1
CCHEMI-E,30919,"CROIX DE CHEMINEE",,47.467526,-0.502874,,,0,place_CCHEMI,,0
CCHEMINE,30005,"CROIX DE CHEMINEE",,47.467762,-0.503228,,,0,place_CCHEMI,,0
CCICHA-E,24375,"CCI",,47.468365,-0.557633,,,0,place_CHACOM,,1
CCOMME-E,10530,"CENTRE COMMERCIAL",,47.437747,-0.526761,,,0,place_CCOMME,,1
CCOMMERC,3146,"CENTRE COMMERCIAL",,47.437849,-0.526928,,,0,place_CCOMME,,1
CEEQUE-E,15981,"CENTRE EQUESTRE",,47.459571,-0.484562,,,0,place_CENEQU,,1
CEEQUEST,14512,"CENTRE EQUESTRE",,47.459580,-0.484705,,,0,place_CENEQU,,1
CESARG-E,23705,"GEOFFRAY",,47.458387,-0.545494,,,0,place_CESGEO,,1
CESARGEO,66,"GEOFFRAY",,47.458645,-0.545934,,,0,place_CESGEO,,1
CEZAN-E,16647,"CEZANNE",,47.469635,-0.491936,,,0,place_SBCEZA,,1
CEZANNE,20935,"CEZANNE",,47.469797,-0.491896,,,0,place_SBCEZA,,1
CFPA,13734,"AFPA",,47.471545,-0.523350,,,0,place_AFPA,,1
CFPA-E,14322,"AFPA",,47.471460,-0.522837,,,0,place_AFPA,,1
CHABLA-E,10390,"CHAMPS BLANCS",,47.517352,-0.475216,,,0,place_CHBLAN,,1
CHABLANC,9247,"CHAMPS BLANCS",,47.517229,-0.475263,,,0,place_CHBLAN,,1
CHACOMME,27218,"CCI",,47.468177,-0.557820,,,0,place_CHACOM,,1
CHADL-E,8514,"CHAMPDOLLANT",,47.556395,-0.561424,,,0,place_CHAMPD,,0
CHAERI-E,8276,"CHATEAU ERIGNE",,47.406391,-0.526012,,,0,place_CHAERI,,0
CHAERIGN,7264,"CHATEAU ERIGNE",,47.406476,-0.525753,,,0,place_CHAERI,,0
CHAGAL-E,675868,"CHAGALL",,47.560152,-0.677582,,,0,place_CHAGAL,,1
CHAGALL,409509,"CHAGALL",,47.560054,-0.677517,,,0,place_CHAGAL,,0
CHALOU-E,16972,"CHALOUERE",,47.481943,-0.536031,,,0,place_CHAL-E,,1
CHALOUER,16319,"CHALOUERE",,47.481349,-0.536775,,,0,place_CHAL-E,,1
CHAMBO-E,22463,"CHAMPBOUREAU",,47.396673,-0.636717,,,0,place_CHAMPB,,0
CHAMBOUR,5924,"CHAMPBOUREAU",,47.396552,-0.636717,,,0,place_CHAMPB,,0
CHAMF-E,48621,"CHAMPFLEUR",,47.482646,-0.503814,,,0,place_CHAMFL,,0
CHAMFL,15711,"CHAMPFLEUR",,47.483024,-0.504334,,,0,place_CHAMFL,,0
CHAMPD,30452,"CHAMPDOLLANT",,47.556722,-0.561433,,,0,place_CHAMPD,,0
CHANSONN,654132,"ROUTE DE LA CHANSONNIERE",,47.583595,-0.483435,,,0,place_CHANSO,,0
CHANT AR,769363,"BOUCHEMAINE CHANTOURTEAU",,47.406140,-0.623126,,,0,place_CHANTO,,0
CHANT-AR,21417,"BOUCHEMAINE CHANTOURTEAU",,47.406118,-0.623107,,,0,place_CHANTO,,0
CHANTE-E,25568,"CHANTERIE",,47.470885,-0.628087,,,0,place_CHANTE,,0
CHANTERI,24849,"CHANTERIE",,47.470943,-0.628019,,,0,place_CHANTE,,0
CHANTOUR,20438,"BOUCHEMAINE CHANTOURTEAU",,47.406116,-0.623126,,,0,place_CHANTO,,0
CHANZY,13887,"CHANZY",,47.460151,-0.557471,,,0,place_CHANZY,,1
CHANZY-E,32089,"CHANZY",,47.460053,-0.557665,,,0,place_CHANZY,,1
CHAPE,651257,"CHAPELLES",,47.468730,-0.382931,,,0,place_CHAPEL,,1
CHAPEL-E,5633,"CHAPELLES",,47.468647,-0.382936,,,0,place_CHAPEL,,0
CHAPELLE,21227,"CHAPELLES",,47.468731,-0.382975,,,0,place_CHAPEL,,0
CHARNA-E,5036,"CHARNASSERIE",,47.491866,-0.556585,,,0,place_CHARNA,,1
CHARNASS,30008,"CHARNASSERIE",,47.491573,-0.557802,,,0,place_CHARNA,,1
CHARRUAU,994566,"CHARRUAU",,47.372821,-0.509244,,,0,place_CHARRU,,0
CHARRU-E,758914,"CHARRUAU",,47.372710,-0.509213,,,0,place_CHARRU,,0
CHATA-E,657686,"CHATAIGNIER",,47.545858,-0.649886,,,0,place_CHATAI,,0
CHATAI,372480,"CHATAIGNIER",,47.545682,-0.649983,,,0,place_CHATAI,,0
CHATELAI,23220,"CHATELAIN",,47.482844,-0.514735,,,0,place_CHATEL,,0
CHATEL-E,24167,"CHATELAIN",,47.483169,-0.514182,,,0,place_CHATEL,,1
CHATENAY,2146,"CHATENAY",,47.482730,-0.521178,,,0,place_CHATEN,,1
CHATEN-E,2767,"CHATENAY",,47.482569,-0.521180,,,0,place_CHATEN,,1
CHAU-E,268887,"LA CHAUVELAIE",,47.436456,-0.584441,,,0,place_LACHAU,,0
CHAUMI-E,12609,"CHAUMIERES",,47.524440,-0.523314,,,0,place_CHAUMI,,0
CHAUMIER,12643,"CHAUMIERES",,47.524116,-0.523314,,,0,place_CHAUMI,,0
CHAUVE,60539,"LA CHAUVELAIE",,47.436533,-0.584372,,,0,place_LACHAU,,0
CHBBEI-E,22139,"CHAPELLE BELLE BEILLE",,47.475463,-0.585993,,,0,place_CHBBEI,,1
CHBBEILL,21074,"CHAPELLE BELLE BEILLE",,47.475812,-0.586120,,,0,place_CHBBEI,,1
CHDARR,39215,"CHATEAU",,47.468772,-0.559284,,,0,place_CHAANG,,1
CHDARR-E,31053,"CHATEAU",,47.469273,-0.560032,,,0,place_CHAANG,,1
CHEMARDE,692812,"AVRILLE - ARDENNE",,47.512466,-0.596402,,,0,place_ARDENN,,0
CHEMAR-E,792762,"AVRILLE - ARDENNE",,47.512196,-0.596042,,,0,place_ARDENN,,0
CHEMIPRE,433167,"CHEMIN DU PRE",,47.467247,-0.635591,,,0,place_CHEPRE,,0
CHEMON-E,395248,"CHEMIN DE MONGAZON",,47.482446,-0.481567,,,0,place_CHEMON,,0
CHEMONGA,921683,"CHEMIN DE MONGAZON",,47.484508,-0.484922,,,0,place_CHEMON,,0
CHENAIE,543770,"LA CHENAIE",,47.547969,-0.474294,,,0,place_CHENAI,,0
CHENAI-E,145360,"LA CHENAIE",,47.548042,-0.474411,,,0,place_CHENAI,,0
CHENERON,980954,"CHENE ROND",,47.395940,-0.536420,,,0,place_CHENRD,,0
CHENOI-E,903926,"CHEMIN NOIR",,47.529576,-0.591020,,,0,place_NOIR,,1
CHENOIR,74282,"CHEMIN NOIR",,47.529411,-0.590817,,,0,place_NOIR,,1
CHENR-E,284422,"CHENE ROND",,47.395843,-0.536236,,,0,place_CHENRD,,0
CHEPRE-E,667046,"CHEMIN DU PRE",,47.467193,-0.635483,,,0,place_CHEPRE,,0
CHESNA-E,28622,"LA CHESNAIE",,47.437021,-0.524003,,,0,place_LACHES,,1
CHESNAIE,21405,"LA CHESNAIE",,47.437232,-0.524311,,,0,place_LACHES,,1
CHESPR-E,658925,"LA CHESNAIE PRUILLE",,47.566127,-0.677766,,,0,place_CHEPRU,,1
CHESPRUI,244895,"LA CHESNAIE PRUILLE",,47.566050,-0.678228,,,0,place_CHEPRU,,0
CHEVA-E,28793,"CHEVALLERIE",,47.554744,-0.660964,,,0,place_CHEVAL,,0
CHEVAL,3108,"CHEVALLERIE",,47.553862,-0.659708,,,0,place_CHEVAL,,0
CHEVRI-E,7832,"CHEVRIERE",,47.423899,-0.609243,,,0,place_CHEVRI,,0
CHEVRIER,7016,"CHEVRIERE",,47.423908,-0.609100,,,0,place_CHEVRI,,0
CHEVRO-E,440202,"LYCEE CHEVROLLIER",,47.453911,-0.557476,,,0,place_CHEVRO,,0
CHEVROLL,858266,"LYCEE CHEVROLLIER",,47.453824,-0.557309,,,0,place_CHEVRO,,0
CHMART-E,2510,"CHAMP DES MARTYRS",,47.490060,-0.582625,,,0,place_CHMART,,1
CHMARTYR,1237,"CHAMP DES MARTYRS",,47.489855,-0.583086,,,0,place_CHMART,,1
CHOUTEAU,22022,"CHOUTEAU",,47.446256,-0.496856,,,0,place_CHOUTE,,1
CHOUTE-E,22740,"CHOUTEAU",,47.446118,-0.496704,,,0,place_CHOUTE,,1
CHPEGU-E,362903,"CHARLES PEGUY",,47.530013,-0.620308,,,0,place_MONTRE,,1
CHPEGUY,855516,"CHARLES PEGUY",,47.529912,-0.620285,,,0,place_MONTRE,,1
CHVERT,23049,"CHENE VERT",,47.470251,-0.514898,,,0,place_CHVERT,,1
CHVERT-E,24160,"CHENE VERT",,47.470421,-0.516632,,,0,place_CHVERT,,1
CIAVRI-E,25684,"CIMETIERE D'AVRILLE",,47.506563,-0.590418,,,0,place_TAVRC,,1
CIAVRILL,24835,"CIMETIERE D'AVRILLE",,47.506404,-0.591072,,,0,place_TAVRC,,1
CIEST.-E,23398,"FRATELLINI",,47.471506,-0.530860,,,0,place_FRATEL,,0
CIMEPO-E,26172,"CIMETIERE DES PONTS DE CE",,47.434322,-0.530206,,,0,place_CIPONT,,1
CIMEPONT,25421,"CIMETIERE DES PONTS DE CE",,47.434273,-0.529602,,,0,place_CIPONT,,1
CIMETI-E,7431,"CIMETIERE DE L'EST",,47.471236,-0.527727,,,0,place_CIMETI,,1
CIMETIER,6354,"CIMETIERE DE L'EST",,47.471369,-0.527739,,,0,place_CIMETI,,1
CIMETR-E,32029,"CIMETIERE DE TRELAZE",,47.446271,-0.462300,,,0,place_TRREF,,1
CIMTRELA,31082,"CIMETIERE DE TRELAZE",,47.446401,-0.462597,,,0,place_TRREF,,1
CIOUES-E,18204,"CIMETIERE DE L'OUEST",,47.479344,-0.570747,,,0,place_CIMOUE,,1
CIOUEST,16897,"CIMETIERE DE L'OUEST",,47.478481,-0.569684,,,0,place_CIMOUE,,1
CITESO-A,68887,"MARCHE MONPLAISIR",,47.488508,-0.535663,,,0,place_SOLIDA,,1
CITESO-E,3002,"LA CITE CHABADA",,47.488508,-0.535663,,,0,place_SOLIDA,,1
CITESOLI,61161,"LA CITE CHABADA",,47.488444,-0.536219,,,0,place_SOLIDA,,1
CITEUN-E,27788,"CITE UNIVERSITAIRE",,47.478676,-0.598176,,,0,place_CITEUN,,1
CITEUNIV,30394,"CITE UNIVERSITAIRE",,47.478879,-0.597880,,,0,place_CITEUN,,1
CITRON-E,4467,"CITRONNELLE",,47.479321,-0.633746,,,0,place_CITRON,,1
CITRONNL,1586,"CITRONNELLE",,47.479422,-0.634007,,,0,place_CITRON,,1
CLAIE,3838,"CLAIE",,47.460763,-0.627112,,,0,place_CLAIE,,0
CLAIE -E,4327,"CLAIE",,47.460717,-0.627038,,,0,place_CLAIE,,0
CLART -E,32378,"CLARTE",,47.454009,-0.481335,,,0,place_CLAR,,0
CLARTE,31594,"CLARTE",,47.454108,-0.481349,,,0,place_CLAR,,0
CLAUDE-E,14882,"CLAUDEL",,47.449984,-0.566807,,,0,place_CLAUDE,,1
CLAUDEL,14,"CLAUDEL",,47.449507,-0.566251,,,0,place_CLAUDE,,1
CLAVERIE,32135,"CLAVERIE",,47.486652,-0.504501,,,0,place_CLAVER,,1
CLEMEG-E,24799,"EGLISE DE SAINT CLEMENT",,47.524913,-0.745279,,,0,place_STCLEG,,0
CLEMEGLI,6423,"EGLISE DE SAINT CLEMENT",,47.524816,-0.745610,,,0,place_STCLEG,,0
CLEMOI-E,26438,"CONSTANT LEMOINE",,47.471959,-0.541621,,,0,place_LEMOIN,,1
CLEMOINE,54191,"CONSTANT LEMOINE",,47.471994,-0.542090,,,0,place_LEMOIN,,1
CLIANJ-E,11590,"PABLO NERUDA",,47.445325,-0.541133,,,0,place_PANERU,,0
CLINAN-E,508501,"CLINIQUE DE L'ANJOU",,47.444458,-0.539046,,,0,place_CLINIQ,,1
CLINANJO,21645,"CLINIQUE DE L'ANJOU",,47.444430,-0.539116,,,0,place_CLINIQ,,1
CLINIQ-E,27786,"CLINIQUE SAINT DIDIER",,47.485338,-0.587427,,,0,place_CLINST,,1
CLINIQUE,26512,"CLINIQUE SAINT DIDIER",,47.485155,-0.587077,,,0,place_CLINST,,1
CLODOR-E,17722,"CLOS DOREAU",,47.496336,-0.425149,,,0,place_DOREAU,,0
CLODOREA,31214,"CLOS DOREAU",,47.496241,-0.425249,,,0,place_DOREAU,,0
CLOS9-E,19966,"CLOS NEUF",,47.422519,-0.565596,,,0,place_STEGEM,,1
CLOSDU-E,700600,"CLOS DU VAU",,47.577140,-0.458142,,,0,place_CLOSDU,,1
CLOSDUVA,900000,"CLOS DU VAU",,47.577249,-0.458131,,,0,place_CLOSDU,,1
CLOSNEUF,23457,"CLOS NEUF",,47.422402,-0.565475,,,0,place_STEGEM,,1
CLOSVI-E,20765,"CLOS DE LA VIGNE",,47.441641,-0.611258,,,0,place_CLVIGN,,1
CLOSVIGN,17761,"CLOS DE LA VIGNE",,47.441596,-0.611293,,,0,place_CLVIGN,,1
CLOTEA-E,834642,"CLOTEAU",,47.507532,-0.408483,,,0,place_CLOTEA,,0
CLOTEAU,466331,"CLOTEAU",,47.507515,-0.408623,,,0,place_CLOTEA,,0
CLOUET,17775,"CLOUET",,47.480228,-0.566247,,,0,place_CLOUET,,1
CLOUET-E,6874,"CLOUET",,47.480639,-0.566362,,,0,place_CLOUET,,1
CNFPT,22225,"CNFPT",,47.472384,-0.599778,,,0,place_CNFPT,,1
CNFPT-E,32156,"CNFPT",,47.472284,-0.599999,,,0,place_CNFPT,,1
COINTR-E,6267,"COINTREAU",,47.476442,-0.507312,,,0,place_COINTR,,1
COINTREA,9457,"COINTREAU",,47.476369,-0.507643,,,0,place_COINTR,,1
COLOMB,74257,"COLOMBIER",,47.482464,-0.490580,,,0,place_COLOMB,,1
COLOM-E,64617,"COLOMBIER",,47.482555,-0.490383,,,0,place_COLOMB,,1
COLTRIAR,23328,"COLTRIE",,47.485318,-0.675836,,,0,place_COLTRI,,0
COLTRIE,31143,"COLTRIE",,47.485471,-0.676010,,,0,place_COLTRI,,0
CORMI-E,8668,"CORMIERS",,47.458047,-0.515383,,,0,place_CORMIE,,1
CORMIER,24903,"CORMIERS",,47.458362,-0.515926,,,0,place_CORMIE,,1
CORNBA-E,932372,"CORNE BASCULE",,47.471600,-0.340920,,,0,place_CORBAS,,0
CORNBASC,78942,"CORNE BASCULE",,47.471633,-0.341125,,,0,place_CORBAS,,0
CORNCR-E,434360,"LA CROIX VERTE",,47.474011,-0.354852,,,0,place_CORNCR,,0
CORNCROI,650527,"LA CROIX VERTE",,47.474177,-0.354730,,,0,place_CORNCR,,0
CORNMA-E,575617,"CORNE MAIRIE",,47.470907,-0.350614,,,0,place_CORNMA,,0
CORNMAIR,544320,"CORNE MAIRIE",,47.470999,-0.350606,,,0,place_CORNMA,,0
CORZE,21390,"CORZE",,47.556503,-0.389456,,,0,place_CORZE,,0
COSSE,12393,"COSSE",,47.438224,-0.553215,,,0,place_COSSE,,0
COSSE-E,7690,"COSSE",,47.438250,-0.553447,,,0,place_COSSE,,0
COSSIERE,976646,"COSSIERES",,47.526059,-0.448212,,,0,place_COSSIE,,0
COTTAGE,4531,"COTTAGE",,47.494799,-0.515339,,,0,place_COTTAG,,1
COTTAG-E,5184,"COTTAGE",,47.494589,-0.515134,,,0,place_COTTAG,,1
COUBER-E,70,"JEAN BOUIN SCOLAIRE",,47.458882,-0.532832,,,0,place_JEABOU,,0
COUBERTI,6822,"JEAN BOUIN SCOLAIRE",,47.459178,-0.533371,,,0,place_JEABOU,,0
COUREAU,617489,"COUREAU",,47.420394,-0.368765,,,0,place_COUREA,,0
COUTARDI,310689,"COUTARDIERE",,47.466250,-0.408317,,,0,place_COUTAR,,0
COUTAR-E,268168,"COUTARDIERE",,47.466232,-0.408159,,,0,place_COUTAR,,0
CRBEAU,21760,"CROIX DE BEAUVAIS",,47.611882,-0.585323,,,0,place_CBEAUV,,0
CRBEAU-E,12387,"CROIX DE BEAUVAIS",,47.612736,-0.584940,,,0,place_CBEAUV,,0
CRBLANCH,20575,"CROIX BLANCHE",,47.480857,-0.517178,,,0,place_CRBLAN,,0
CRBLAN-E,21587,"CROIX BLANCHE",,47.480756,-0.517145,,,0,place_CRBLAN,,0
CRESSO-E,191441,"CRESSONNIERE",,47.474326,-0.492340,,,0,place_CRESSO,,0
CRESSONN,407603,"CRESSONNIERE",,47.474331,-0.492068,,,0,place_CRESSO,,0
CRETAUDI,809228,"CRETAUDIERE",,47.475625,-0.366224,,,0,place_CRETAU,,0
CRETAU-E,747849,"CRETAUDIERE",,47.475550,-0.366299,,,0,place_CRETAU,,0
CRFRUX,29507,"CROIX DES FRUX",,47.503213,-0.690965,,,0,place_CRFRUX,,0
CRFRUX-E,10392,"CROIX DES FRUX",,47.503348,-0.690967,,,0,place_CRFRUX,,0
CROISE-E,29354,"CROISETTE",,47.450963,-0.600432,,,0,place_CROIST,,1
CROISETT,28700,"CROISETTE",,47.450933,-0.600121,,,0,place_CROIST,,1
CROIXV-E,28430,"ROUTE DE BOUCHEMAINE",,47.444974,-0.577209,,,0,place_RTEBOU,,0
CROIXVER,27646,"ROUTE DE BOUCHEMAINE",,47.444890,-0.577266,,,0,place_RTEBOU,,0
CRVESC-E,485025,"LA CROIX VERTE Scolaire",,47.474234,-0.354750,,,0,place_CORSCO,,0
CRVESCOL,697945,"LA CROIX VERTE Scolaire",,47.474296,-0.354762,,,0,place_CORSCO,,0
CSARTHE,114,"CROIX DE SARTHE",,47.539950,-0.570310,,,0,place_CSARTH,,0
CSARTH-E,2380,"CROIX DE SARTHE",,47.540117,-0.569923,,,0,place_CSARTH,,0
CTRETR-E,6456,"CENTRE DE TRI",,47.452567,-0.570792,,,0,place_CDETRI,,1
CTRETRI,2211,"CENTRE DE TRI",,47.452235,-0.570336,,,0,place_CDETRI,,1
DAGUCH-E,539974,"DAGUENIERE LE CHENE",,47.420101,-0.445472,,,0,place_DAGCHE,,0
DAGUCHEN,564365,"DAGUENIERE LE CHENE",,47.420293,-0.446046,,,0,place_DAGCHE,,0
DAGUEG-E,732652,"DAGUENIERE PLACE DE L'EGLISE",,47.419300,-0.436781,,,0,place_DAGEGL,,0
DAGUEGLI,114161,"DAGUENIERE PLACE DE L'EGLISE",,47.419408,-0.436785,,,0,place_DAGEGL,,0
DAGUER-E,8833,"DOJO DAGUERRE",,47.446498,-0.506870,,,0,place_DOJO,,0
DAGUERRE,2483,"DOJO DAGUERRE",,47.446639,-0.506314,,,0,place_DOJO,,0
DAGUVA-E,863802,"DAGUENIERE VAL D'AUTHION",,47.419284,-0.428108,,,0,place_DAGUVA,,0
DAGUVALA,929816,"DAGUENIERE VAL D'AUTHION",,47.419390,-0.428294,,,0,place_DAGUVA,,0
DANEMA,11354,"DANEMARK",,47.527855,-0.597551,,,0,place_DANEMA,,1
DANEMA-E,5563,"DANEMARK",,47.527721,-0.597817,,,0,place_DANEMA,,1
DANGELIN,79140,"DANIEL GELIN",,47.445119,-0.526964,,,0,place_DANIEL,,1
DARWIN,13304,"DARWIN",,47.473837,-0.604198,,,0,place_DARWIN,,0
DARWIN-E,12749,"DARWIN",,47.474255,-0.605230,,,0,place_DARWIN,,0
DAUTEL,22320,"DAUTEL",,47.442820,-0.483688,,,0,place_DAUTEL,,0
DAUTEL-E,26667,"DAUTEL",,47.442871,-0.483276,,,0,place_DAUTEL,,0
DAVIERES,463464,"DAVIERES",,47.583186,-0.477864,,,0,place_DAVIER,,0
DEBEAU-E,9943,"DE BEAUVOIR",,47.529041,-0.614687,,,0,place_DEBOVE,,0
DEBEAUVO,20135,"DE BEAUVOIR",,47.528946,-0.614638,,,0,place_DEBOVE,,0
DEBU22-E,12625,"DEBUSSY",,47.487187,-0.515386,,,0,place_DEBUSS,,0
DEBU31-E,9638,"COLLEGE DEBUSSY",,47.488492,-0.515920,,,0,place_DEBULY,,0
DEBUSS22,13474,"DEBUSSY",,47.487634,-0.515812,,,0,place_DEBUSS,,0
DEBUSS31,24570,"COLLÈGE DEBUSSY",,47.488500,-0.515913,,,0,place_DEBULY,,0
DEBUSS-E,612,"DEBUSSY",,47.488420,-0.515830,,,0,place_DEBUSS,,0
DEBUSSY,32335,"DEBUSSY",,47.488310,-0.516113,,,0,place_DEBUSS,,0
DEGAUL-E,17571,"DE GAULLE",,47.453109,-0.478216,,,0,place_DEGAUL,,0
DEGAULLE,30690,"DE GAULLE",,47.453360,-0.478316,,,0,place_DEGAUL,,0
DELACR-E,3905,"DELACROIX",,47.454898,-0.528833,,,0,place_DELACR,,1
DELACROI,5132,"DELACROIX",,47.454901,-0.528627,,,0,place_DELACR,,1
DELATA-E,29323,"DE LATTRE",,47.453187,-0.541377,,,0,place_DELATT,,1
DELATR-E,25487,"DE LATTRE",,47.452337,-0.541852,,,0,place_DLATTR,,1
DELATTAS,27760,"DE LATTRE",,47.453364,-0.541200,,,0,place_DELATT,,1
DELATTRE,10046,"DE LATTRE",,47.452609,-0.541648,,,0,place_DLATTR,,1
DELESC-E,22260,"DELESCLUZE",,47.466048,-0.605045,,,0,place_DELESC,,1
DELESCL,27348,"DELESCLUZE",,47.466083,-0.604892,,,0,place_DELESC,,1
DESCAZ-E,25148,"DESCAZEAUX",,47.476786,-0.566113,,,0,place_DSCAZE,,1
DESCAZEA,5599,"DESCAZEAUX",,47.477432,-0.565945,,,0,place_DSCAZE,,1
DESER-E,60376,"DE SERRE",,47.477763,-0.614765,,,0,place_DESERR,,0
DESERRE,25513,"DE SERRE",,47.477786,-0.615330,,,0,place_DESERR,,0
DESJARDI,18446,"DESJARDINS",,47.477948,-0.530275,,,0,place_DESJAR,,1
DESJAR-E,8104,"DESJARDINS",,47.477862,-0.530132,,,0,place_DESJAR,,1
DESMAZ,15401,"DESMAZIERES",,47.462542,-0.534526,,,0,place_DESMAZ,,1
DESMAZ-E,15428,"DESMAZIERES",,47.462647,-0.535002,,,0,place_DESMAZ,,1
DEUVAL,17151,"DEUX VALLÉES",,47.568307,-0.498900,,,0,place_DEUVAL,,0
DEUVAL-E,575510,"DEUX VALLÉES",,47.568263,-0.498745,,,0,place_DEUVAL,,0
DEUXCR,12239,"DAGUENET",,47.474811,-0.528444,,,0,place_DXCRX,,1
DEUXCR-E,19319,"DAGUENET",,47.474758,-0.527973,,,0,place_DXCRX,,1
DEZIE AR,19310,"AVRILLE ADEZIERE",,47.504950,-0.605053,,,0,place_DZIERE,,1
DGELIN-E,81163,"DANIEL GELIN",,47.445152,-0.527125,,,0,place_DANIEL,,1
DIONNEAU,28948,"DIONNEAU",,47.438788,-0.530002,,,0,place_DIONNE,,1
DIONNE-E,9126,"DIONNEAU",,47.438786,-0.530247,,,0,place_DIONNE,,1
DIONNI-E,28803,"DIONNIERE",,47.543693,-0.485056,,,0,place_DIONNI,,0
DIONNIER,4977,"DIONNIERE",,47.543693,-0.485056,,,0,place_DIONNI,,0
DIX8JU-E,22297,"18 JUIN MONTREUIL",,47.529605,-0.618041,,,0,place_DIX8JU,,0
DIX8JUI,2997,"18 JUIN MONTREUIL",,47.529528,-0.618128,,,0,place_DIX8JU,,0
DOLANTIN,225971,"DOLANTINES",,47.527976,-0.445027,,,0,place_DOLANT,,0
DOMETA-E,21363,"ROUTE DE L'ETANG",,47.507896,-0.607365,,,0,place_RTET,,0
DOMETANG,19431,"ROUTE DE L'ETANG",,47.507159,-0.607730,,,0,place_RTET,,0
DOMVAL,15402,"DOMAINE DU VAL",,47.537042,-0.625043,,,0,place_DOMVAL,,1
DOMVAL-E,366109,"DOMAINE DU VAL",,47.536901,-0.624975,,,0,place_DOMVAL,,0
DOMVATER,266184,"DOMAINE DU VAL",,47.536656,-0.624831,,,0,place_DOMVAL,,1
DOUBLO-E,692318,"LA DOUBLONNIERE",,47.403721,-0.668764,,,0,place_DOUBLO,,0
DOUBLONI,448269,"LA DOUBLONNIERE",,47.403753,-0.668843,,,0,place_DOUBLO,,0
DOYENNE,24995,"DOYENNE",,47.490608,-0.532581,,,0,place_DOYENN,,1
DOYENN-E,10951,"DOYENNE",,47.490584,-0.532206,,,0,place_DOYENN,,0
DSBA-ENT,11739,"ZI EST",,47.475329,-0.495720,,,0,place_COTRA,,1
DSBAR-CV,2951,"ZI EST",,47.475293,-0.495581,,,0,place_COTRA,,1
DSCASUB,661157,"DESCAZEAUX SUB",,47.476912,-0.567311,,,0,place_DSCAZE,,0
DSCAZEAU,24278,"DESCAZEAUX",,47.476515,-0.566920,,,0,place_DSCAZE,,1
DSCAZE-E,25257,"DESCAZEAUX",,47.476226,-0.565892,,,0,place_DSCAZE,,1
DUBE,11379,"DUBE",,47.415859,-0.523038,,,0,place_DUBE,,1
DUBE  -E,12097,"DUBE",,47.415415,-0.523316,,,0,place_DUBE,,1
DUBELLAY,3061,"DU BELLAY",,47.492473,-0.513379,,,0,place_DUBELL,,0
DUBELL-E,3812,"DU BELLAY",,47.492176,-0.513243,,,0,place_DUBELL,,0
DUMESN-E,5561,"DUMESNIL",,47.473815,-0.566934,,,0,place_DUMESN,,1
DUMESNIL,4581,"DUMESNIL",,47.473659,-0.567300,,,0,place_DUMESN,,1
DUMNACUS,23298,"DUMNACUS",,47.486392,-0.592077,,,0,place_DUMNAC,,0
DUNAN,19081,"DUNANT",,47.483529,-0.525567,,,0,place_DUNLEP,,1
DUNAN-E,14642,"DUNANT",,47.483348,-0.525681,,,0,place_DUNLEP,,1
DUREL1-E,749082,"DURELLERIES 1",,47.428923,-0.641367,,,0,place_DURELL,,0
DUREL2-E,631634,"DURELLERIES 2",,47.431119,-0.641869,,,0,place_DUREL2,,0
DURELLE1,530721,"DURELLERIES 1",,47.428933,-0.641212,,,0,place_DURELL,,0
DURELLE2,489663,"DURELLERIES 2",,47.431100,-0.641738,,,0,place_DUREL2,,0
DURVIL-E,22678,"DUMONT D'URVILLE",,47.445056,-0.557235,,,0,place_DUMONT,,1
DURVILLE,28495,"DUMONT D'URVILLE",,47.445205,-0.557177,,,0,place_DUMONT,,1
EBEAUP-E,9811,"EBEAUPIN",,47.464415,-0.624810,,,0,place_EBEAUP,,0
EBEAUPIN,22853,"EBEAUPIN",,47.464338,-0.624740,,,0,place_EBEAUP,,0
EBLE,18451,"EBLE",,47.455317,-0.566319,,,0,place_EBLE,,1
EBLE  -E,18302,"EBLE",,47.455383,-0.566308,,,0,place_EBLE,,1
ECHATS,24869,"ECHATS",,47.480706,-0.632067,,,0,place_ECHATS,,1
ECHATS-E,30592,"ECHATS",,47.481018,-0.631917,,,0,place_ECHATS,,1
ECHMA-E,30440,"ECHMAN",,47.490228,-0.575637,,,0,place_ECHMA,,1
ECHMAN,20511,"ECHMAN",,47.490175,-0.575806,,,0,place_ECHMA,,1
ECLATE-E,15952,"ECLATERIES",,47.451073,-0.519982,,,0,place_ECLATE,,1
ECLATERI,28347,"ECLATERIES",,47.451199,-0.519733,,,0,place_ECLATE,,1
ECOANDAR,621938,"ECOLE ANDARD",,47.457398,-0.398655,,,0,place_ECOAND,,0
ECOAND-E,792101,"ECOLE ANDARD",,47.457399,-0.398642,,,0,place_ECOAND,,0
ECOBAU-A,548823,"ECOLE DE BAUNE",,47.503086,-0.316172,,,0,place_ECOP,,0
ECOBAU-D,366802,"ECOLE DE BAUNE",,47.503093,-0.316221,,,0,place_ECOP,,0
ECOTIE-E,24531,"ECOTIERE",,47.363601,-0.505626,,,0,place_ECOTIE,,0
ECOTIERE,28731,"ECOTIERE",,47.363515,-0.505663,,,0,place_ECOTIE,,0
ECPRVI,986309,"ECOLE PRIMAIRE VILLEVEQUE",,47.559407,-0.424159,,,0,place_ECPRVI,,0
ECUIL-E,3439,"ECUILLE",,47.616502,-0.560938,,,0,place_ECUILL,,0
ECUILL,3505,"ECUILLE",,47.616506,-0.560967,,,0,place_ECUILL,,0
EDF,6009,"BERGERIE",,47.487553,-0.471236,,,0,place_BERGER,,0
EDF-E,16211,"BERGERIE",,47.487435,-0.471269,,,0,place_BERGER,,0
EGLTRE-E,1318,"EGLISE DE TRELAZE",,47.445443,-0.464612,,,0,place_EGTREL,,1
EGLTRELA,208,"EGLISE DE TRELAZE",,47.445574,-0.464941,,,0,place_EGTREL,,1
ELYSEE,18951,"ÉLYSÉE",,47.473576,-0.584617,,,0,place_ELYSEE,,0
ELYSEE-E,20767,"ÉLYSÉE",,47.473672,-0.584940,,,0,place_ELYSEE,,0
EMPIRE,15565,"EMPIRE",,47.423122,-0.592835,,,0,place_EMPIRE,,0
EMPIRE-E,15466,"EMPIRE",,47.422909,-0.593306,,,0,place_EMPIRE,,0
EPINAY,158422,"L'EPINAY",,47.432629,-0.377339,,,0,place_EPINAY,,0
EPINAY-E,729440,"L'EPINAY",,47.432609,-0.377248,,,0,place_EPINAY,,0
EPINET,160711,"L'EPINET",,47.546583,-0.444356,,,0,place_EPINET,,1
EPIRE,27409,"EPIRE",,47.398581,-0.634615,,,0,place_EPIRE,,0
EPIRE-E,7152,"EPIRE",,47.398263,-0.634565,,,0,place_EPIRE,,0
ERIGNE,30529,"ERIGNE",,47.400795,-0.530711,,,0,place_ERIGNE,,1
ERIGNE-E,31182,"ERIGNE",,47.400598,-0.530511,,,0,place_ERIGNE,,1
ESA,6717,"ESA",,47.458532,-0.544915,,,0,place_ESA,,1
ESA-E,19309,"ESA",,47.458957,-0.545354,,,0,place_ESA,,1
ESATBE-E,611355,"ESAT LES BEJONNIERES",,47.481344,-0.510196,,,0,place_BEJONI,,0
ESATBEJO,241355,"ESAT LES BEJONNIERES",,47.481282,-0.510115,,,0,place_BEJONI,,0
ESCALAV,28477,"ESSCA",,47.477266,-0.598718,,,0,place_LAVOIS,,0
ESNAUD-E,91404,"L'ESNAUDERIE",,47.593146,-0.549715,,,0,place_ESNAUD,,0
ESNAUDER,511998,"L'ESNAUDERIE",,47.593253,-0.549823,,,0,place_ESNAUD,,0
ESPAC AR,9410,"ESPACE ANJOU",,47.468151,-0.526070,,,0,place_ESPACE,,0
ESPACE5A,8609,"ESPACE ANJOU",,47.467390,-0.520326,,,0,place_ESPA25,,1
ESPACE5B,6519,"ESPACE ANJOU",,47.467591,-0.520484,,,0,place_ESPA25,,1
ESPACEAN,18251,"ESPACE ANJOU",,47.468151,-0.526070,,,0,place_ESPACE,,0
ESPAJEUN,28726,"MAISON DE LA DANSE",,47.488869,-0.584872,,,0,place_ESPAJE,,1
ESPJEU-E,1080,"MAISON DE LA DANSE",,47.488519,-0.585299,,,0,place_ESPAJE,,1
ESPLO-E,17768,"ESPACE LONGUENEE",,47.540160,-0.672764,,,0,place_ESPLON,,0
ESP-LON,16227,"ESPACE LONGUENEE",,47.540102,-0.672993,,,0,place_ESPLON,,0
ESPMON-E,34314,"ESPERANTO",,47.529501,-0.603745,,,0,place_ESPMON,,1
ESPMONTR,15922,"ESPERANTO",,47.529419,-0.603658,,,0,place_ESPMON,,1
ESSCA,86,"ESSCA",,47.477236,-0.599170,,,0,place_LAVOIS,,0
ESTAMI-E,673452,"ESTAMINET",,47.565754,-0.503686,,,0,place_ESTAMI,,0
ESTAMINE,579551,"ESTAMINET",,47.565738,-0.503877,,,0,place_ESTAMI,,0
ETAS,32370,"ETAS",,47.524535,-0.619971,,,0,place_ETAS,,0
ETAS-E,15715,"ETAS",,47.524532,-0.619972,,,0,place_ETAS,,0
EVENT AR,7408,"EVENTARD",,47.496879,-0.514992,,,0,place_EVREF,,1
EVENTA T,8776,"EVENTARD",,47.496874,-0.514998,,,0,place_EVREF,,1
FACUL-SS,7400,"FACULTE",,47.479322,-0.550989,,,0,place_STSE,,1
FACULT-E,30202,"FACULTE",,47.479299,-0.550760,,,0,place_STSE,,1
FARCY,29337,"BALZAC",,47.472440,-0.576239,,,0,place_FARCY,,0
FARCY-E,1432,"BALZAC",,47.472692,-0.576301,,,0,place_FARCY,,0
FENCH-E,955983,"CHAMP FLEURI FENEU",,47.567766,-0.579312,,,0,place_CHFLFE,,0
FENCHFL,815465,"CHAMP FLEURI FENEU",,47.567914,-0.579310,,,0,place_CHFLFE,,0
FENEU AR,768933,"EGLISE DE FENEU",,47.569634,-0.594409,,,0,place_FENEU,,0
FENEU ZA,370674,"ZA FENEU ARRIVEE",,47.579173,-0.591395,,,0,place_ZARTIS,,0
FENEUBUS,36001,"EGLISE DE FENEU",,47.569634,-0.594409,,,0,place_FENEU,,1
FFAURE,28159,"FELIX FAURE",,47.485660,-0.547307,,,0,place_FFAURE,,0
FFAURE-E,13088,"FELIX FAURE",,47.485487,-0.546939,,,0,place_FFAURE,,0
FIEFGENT,22382,"FIEF GENTIL",,47.533317,-0.526159,,,0,place_FIEFGE,,0
FIEGEN-E,24053,"FIEF GENTIL",,47.533279,-0.526050,,,0,place_FIEFGE,,0
FMEDEC-E,2930,"FACULTE DE MEDECINE",,47.487390,-0.552561,,,0,place_FACMED,,1
FMEDECIN,10330,"FACULTE DE MEDECINE",,47.487180,-0.552285,,,0,place_FACMED,,1
FMITTE-E,8589,"SAINT SERGE UNIVERSITE",,47.476581,-0.551174,,,0,place_FMITTE,,1
FMITTERA,6467,"SAINT SERGE UNIVERSITE",,47.476642,-0.551968,,,0,place_FMITTE,,1
FOCH .-E,11393,"FOCH MAISON BLEUE",,47.469101,-0.549773,,,0,place_CENTRE,,1
FO-LOR-R,170,"FOCH MAISON BLEUE",,47.469676,-0.548989,,,0,place_CENTRE,,1
FONTAI-E,26615,"LA FONTAINE FENEU",,47.569663,-0.590349,,,0,place_FONTAI,,0
FONTAINE,15253,"LA FONTAINE FENEU",,47.569642,-0.590538,,,0,place_FONTAI,,0
FORGES,3128,"LES FORGES",,47.386438,-0.645165,,,0,place_FORGES,,0
FORGES-E,1732,"LES FORGES",,47.386304,-0.645229,,,0,place_FORGES,,0
FOUDON,534977,"FOUDON",,47.492288,-0.425368,,,0,place_FOUDON,,0
FOUDON-E,375171,"FOUDON",,47.492273,-0.425210,,,0,place_FOUDON,,0
FOUILLOU,322999,"LE FOUILLOUX",,47.417866,-0.668967,,,0,place_FOUILL,,0
FOUQUE-E,28861,"FOUQUETTERIE",,47.468274,-0.705249,,,0,place_FOUQUE,,0
FOUQUETT,1497,"FOUQUETTERIE",,47.467921,-0.705179,,,0,place_FOUQUE,,0
FOUSSEAU,24740,"FOUSSEAUX",,47.515771,-0.468508,,,0,place_FOUSSE,,0
FOUSSE-E,25785,"FOUSSEAUX",,47.515807,-0.468631,,,0,place_FOUSSE,,0
FRANCA-E,27417,"FRANCAISERIE",,47.521484,-0.466227,,,0,place_FRANCA,,1
FRANCAIS,26601,"FRANCAISERIE",,47.520938,-0.465769,,,0,place_FRANCA,,1
FRANVI-E,13502,"VILLON",,47.433643,-0.522855,,,0,place_FRAVIL,,1
FRANVILL,15918,"VILLON",,47.433724,-0.523151,,,0,place_FRAVIL,,1
FRATE-E,71441,"FRATERNITE",,47.490839,-0.561683,,,0,place_FRATER,,1
FRATER,49164,"FRATERNITE",,47.491015,-0.562371,,,0,place_FRATER,,1
FRAVISCO,697386,"COLLEGE FRANCOIS VILLON",,47.433030,-0.521968,,,0,place_FRAVIL,,0
FRAVIS-E,882303,"COLLEGE FRANCOIS VILLON",,47.433313,-0.521492,,,0,place_FRAVIL,,0
FRCEVE-E,15734,"CEVERT",,47.446567,-0.543635,,,0,place_CEVERT,,1
FRCEVERT,14982,"CEVERT",,47.446348,-0.544187,,,0,place_CEVERT,,1
FREMON-E,5869,"FREMOND",,47.485763,-0.561906,,,0,place_FREMON,,0
FREMONT,22950,"FREMOND",,47.485690,-0.561319,,,0,place_FREMON,,0
FREMUR,18974,"FREMUR",,47.458710,-0.558224,,,0,place_FREMUR,,1
FREMUR-E,19151,"FREMUR",,47.458583,-0.558089,,,0,place_FREMUR,,1
FRESNA-E,27900,"FRESNAIES",,47.448234,-0.500900,,,0,place_FRESNA,,1
FRESNAIE,23491,"FRESNAIES",,47.448053,-0.500483,,,0,place_FRESNA,,1
FRESN-AR,29527,"LE FRESNE",,47.442411,-0.583651,,,0,place_FRESNE,,0
FRESNE,32041,"LE FRESNE",,47.442418,-0.583650,,,0,place_FRESNE,,0
FRMEIL-E,27294,"MEILLAND",,47.448620,-0.546355,,,0,place_FRMEIL,,1
FRMEILLA,24551,"MEILLAND",,47.447971,-0.546519,,,0,place_FRMEIL,,0
FROMIO-E,678514,"LE FROMIOUX",,47.509993,-0.716868,,,0,place_FROMIO,,0
FROMIOUX,159425,"LE FROMIOUX",,47.509048,-0.714996,,,0,place_FROMIO,,0
FRONDEMA,22268,"FRONT DE MAINE",,47.472514,-0.566587,,,0,place_FRONDE,,1
FRONDM-E,13856,"FRONT DE MAINE",,47.472260,-0.566167,,,0,place_FRONDE,,1
FUNAUL-E,211846,"FUNAULT",,47.534658,-0.456759,,,0,place_FUNAUL,,0
FUNAULT,368680,"FUNAULT",,47.534595,-0.456771,,,0,place_FUNAUL,,0
GADIFA-E,226554,"GADIFAIX",,47.576028,-0.449430,,,0,place_GADIFA,,0
GADIFAIX,789137,"GADIFAIX",,47.576137,-0.449491,,,0,place_GADIFA,,0
GAIGNE,150305,"GAIGNE",,47.384000,-0.552437,,,0,place_GAIGNE,,0
GALIL-E,9088,"GALILEE",,47.456596,-0.667856,,,0,place_GALILE,,0
GALILEE,17363,"GALILEE",,47.456345,-0.667239,,,0,place_GALILE,,0
GALLIE,3438,"GALLIENI",,47.434617,-0.524572,,,0,place_GALLIE,,1
GALLI-E,4908,"GALLIENI",,47.434827,-0.524525,,,0,place_GALLIE,,1
GALLIENI,16963,"PLACE DE L'EUROPE",,47.486083,-0.528696,,,0,place_EUROP5,,0
GARD-D-E,735774,"MAIRIE DE SAINT SYLVAIN",,47.519795,-0.471135,,,0,place_GARD-D,,1
GARDON-E,38569,"GARDONNE",,47.521629,-0.470926,,,0,place_GARDON,,1
GARDONNE,12906,"GARDONNE",,47.521768,-0.471949,,,0,place_GARDON,,1
GARDOT,27530,"GARDOT",,47.468285,-0.533353,,,0,place_GARDOT,,1
GARDOT-E,17618,"GARDOT",,47.468284,-0.533103,,,0,place_GARDOT,,1
GAREBO-E,14886,"GARE DE BOUCHEMAINE",,47.416676,-0.614858,,,0,place_GAREBO,,1
GAREBOUC,13972,"GARE DE BOUCHEMAINE",,47.416637,-0.614744,,,0,place_GAREBO,,1
GARECO-E,23799,"GARE D'ECOUFLANT",,47.503879,-0.519712,,,0,place_GARECO,,0
GARECOUF,30849,"GARE D'ECOUFLANT",,47.503599,-0.520183,,,0,place_GARECO,,0
GAREPA-E,715,"GARES PAPIN",,47.465169,-0.557569,,,0,place_GARE,,0
GAREPAPI,16316,"GARES PAPIN",,47.464917,-0.557761,,,0,place_GARE,,0
GARESEMA,21525,"GARES SEMARD",,47.464955,-0.559286,,,0,place_GARE,,0
GARESNCF,18137,"ANGERS GARES",,47.464686,-0.558011,,,0,place_GARE,,0
GARPAPIN,26880,"ANGERS GARES",,47.464686,-0.558011,,,0,place_GARE,,0
GARR-AR,7592,"GARES SEMARD",,47.464955,-0.559286,,,0,place_GARE,,0
GARVIB-E,117813,"GARE VIEUX BRIOLLAY",,47.572999,-0.482547,,,0,place_GAVIBR,,0
GARVIBRI,30863,"GARE VIEUX BRIOLLAY",,47.573108,-0.482801,,,0,place_GAVIBR,,0
GASNIE-E,30059,"GASNIER",,47.485229,-0.571675,,,0,place_GASNIE,,1
GASNIER,21628,"GASNIER",,47.485220,-0.571879,,,0,place_GASNIE,,1
GASPAL-E,409,"GASPALON",,47.452852,-0.507281,,,0,place_GASPAL,,0
GASPALON,21485,"GASPALON",,47.453286,-0.506952,,,0,place_GASPAL,,0
GATS,7008,"LES GATS",,47.474404,-0.517656,,,0,place_GATS,,1
GATS  -E,11785,"LES GATS",,47.474304,-0.517184,,,0,place_GATS,,1
GAUBLOCA,18625,"GAUBOURGS",,47.448383,-0.572388,,,0,place_GAUBGS,,1
GAUBLOCB,21184,"GAUBOURGS",,47.448444,-0.573255,,,0,place_GAUBGS,,0
GAUBOU-E,23234,"GAUBOURGS",,47.449319,-0.573138,,,0,place_GAUBOU,,0
GAUBOUR5,29955,"GAUBOURGS",,47.447972,-0.572448,,,0,place_GAUBBO,,1
GAUGUI-E,397148,"PAUL GAUGUIN",,47.526696,-0.464142,,,0,place_PGAUGU,,1
GAUGUIN,168097,"PAUL GAUGUIN",,47.526766,-0.464629,,,0,place_PGAUGU,,1
GAUTIE-E,615013,"PAS GAUTIER",,47.471712,-0.409417,,,0,place_PASGAU,,0
GAUTIER,538212,"PAS GAUTIER",,47.471528,-0.409564,,,0,place_PASGAU,,0
GBREM-E,25296,"GARES BREMONT",,47.465715,-0.559484,,,0,place_GARE,,1
GDMAINE,14612,"GRAND MAINE",,47.467608,-0.593025,,,0,place_GDMAIN,,1
GDMAIN-E,15461,"GRAND MAINE",,47.467398,-0.593580,,,0,place_GDMAIN,,1
GDMOTTAY,327252,"GRAND MOTTAY",,47.575797,-0.477639,,,0,place_GRAMOT,,0
GDMOTT-E,431561,"GRAND MOTTAY",,47.575729,-0.477508,,,0,place_GRAMOT,,0
GDPERI-E,4875,"GRAND PERIGNE",,47.473909,-0.614659,,,0,place_GDPERI,,1
GDPERIGN,13901,"GRAND PERIGNE",,47.473809,-0.614664,,,0,place_GDPERI,,1
GDPRES-E,18745,"GRAND PRESSOIR",,47.399489,-0.528167,,,0,place_GDPRES,,0
GDPRESSO,39547,"GRAND PRESSOIR",,47.399434,-0.527715,,,0,place_GDPRES,,1
GEMMET-E,5906,"GEMMETRIE-ESAIP",,47.463218,-0.499321,,,0,place_ESAIP,,1
GEMMETR,27273,"GEMMETRIE-ESAIP",,47.463176,-0.499144,,,0,place_ESAIP,,1
GENDRIE,833019,"LA GENDRIE",,47.498948,-0.324872,,,0,place_GENDRI,,0
GENDRI-E,787054,"LA GENDRIE",,47.498822,-0.324752,,,0,place_GENDRI,,0
GENETI-E,30451,"GENETIERE",,47.494880,-0.443677,,,0,place_GENETI,,0
GENETIER,30363,"GENETIERE",,47.495005,-0.442515,,,0,place_GENETI,,0
GENIE,17276,"GENIE",,47.457984,-0.563909,,,0,place_GENIE,,1
GENIE -E,16931,"GENIE",,47.458149,-0.563825,,,0,place_GENIE,,1
GENTR-E,30843,"GENTRIC",,47.447939,-0.485186,,,0,place_GENTRI,,0
GENTRIC,45617,"GENTRIC",,47.447382,-0.485716,,,0,place_GENTRI,,0
GERI25,4572,"GRANDS RUAUX",,47.565824,-0.555758,,,0,place_GRANRU,,0
GERI25-E,19686,"GRANDS RUAUX",,47.565971,-0.555452,,,0,place_GRANRU,,0
GERICA-E,2160,"GERICAULT",,47.459861,-0.523681,,,0,place_GERICA,,1
GERICAUL,9434,"GERICAULT",,47.460105,-0.524604,,,0,place_GERICA,,1
GGESSAND,18970,"GEORGE SAND",,47.433139,-0.519621,,,0,place_GUILLE,,1
GGSAND-E,36947,"GEORGE SAND",,47.433340,-0.519533,,,0,place_GUILLE,,1
GILLIE-E,13563,"GILLIER",,47.474962,-0.525317,,,0,place_GILLIE,,1
GILLIER,4265,"GILLIER",,47.475051,-0.525888,,,0,place_GILLIE,,1
GIRAD-E,53995,"GIRARDEAU",,47.436438,-0.520408,,,0,place_GIRAR,,1
GIRARD,111619,"GIRARD",,47.490591,-0.581697,,,0,place_GIRARD,,0
GIRARDE,24763,"GIRARDEAU",,47.436629,-0.520933,,,0,place_GIRAR,,1
GIRARD-E,793256,"GIRARD",,47.490633,-0.581885,,,0,place_GIRARD,,0
GIRAUD,5136,"GIRAUDIERE",,47.521253,-0.436080,,,0,place_GIRAUD,,0
GLAND,863930,"LA GLAND",,47.403560,-0.658398,,,0,place_GLAND,,0
GLYCIN-E,28945,"GLYCINES",,47.498834,-0.523860,,,0,place_GLYCIN,,0
GLYCINES,2847,"GLYCINES",,47.499006,-0.523890,,,0,place_GLYCIN,,0
GOURON-E,1177,"GOURONNIERES",,47.483126,-0.569371,,,0,place_GOUROU,,1
GOURONNI,19767,"GOURONNIERES",,47.482974,-0.569443,,,0,place_GOUROU,,1
GPOMPIDO,2755,"POMPIDOU",,47.491891,-0.592339,,,0,place_GPOMPI,,0
GPOMPI-E,10339,"POMPIDOU",,47.492074,-0.592230,,,0,place_GPOMPI,,0
GRANBE-E,1713,"GRANGE AUX BELLES",,47.476709,-0.628329,,,0,place_ECOLEB,,1
GRANBELL,19824,"GRANGE AUX BELLES",,47.476672,-0.628594,,,0,place_ECOLEB,,1
GRANCHEM,658794,"GRAND CHEMIN",,47.417468,-0.310567,,,0,place_GRACHE,,0
GRANCLAY,748121,"GRAND CLAYE",,47.387070,-0.538353,,,0,place_GRANCL,,0
GRANCL-E,627562,"GRAND CLOS",,47.479806,-0.413527,,,0,place_GRACLO,,0
GRANCLOS,51638,"GRAND CLOS",,47.479709,-0.413631,,,0,place_GRACLO,,0
GRANDC-E,85459,"GRAND CLAYE",,47.387094,-0.538438,,,0,place_GRANCL,,1
GRANDM-E,12485,"GRANDMONT",,47.486947,-0.587992,,,0,place_GRANMO,,1
GRANDMON,11878,"GRANDMONT",,47.487549,-0.587593,,,0,place_GRANMO,,1
GRANDPIN,21061,"GRAND PIN",,47.473291,-0.631953,,,0,place_GDPIN,,1
GRANPI-E,22564,"GRAND PIN",,47.473301,-0.631656,,,0,place_GDPIN,,1
GRCARR-E,7784,"ARENA LOIRE",,47.443454,-0.478290,,,0,place_ARENAL,,1
GRCARREA,7000,"ARENA LOIRE",,47.443460,-0.478690,,,0,place_ARENA,,1
GRCHAM-E,669,"GRANDS CHAMPS",,47.514728,-0.434038,,,0,place_GRDCHA,,0
GRCHAMPS,364,"GRANDS CHAMPS",,47.514649,-0.434210,,,0,place_GRDCHA,,0
GRCPRU-E,25729,"GROUPE COMMERCIAL",,47.445584,-0.606625,,,0,place_CCPRUN,,1
GRCPRUNI,24782,"GROUPE COMMERCIAL",,47.445730,-0.605908,,,0,place_CCPRUN,,1
GRENOUIL,343073,"LE GRENOUILLE",,47.502958,-0.328259,,,0,place_GRENOU,,0
GRES11-E,15716,"GRESILLE",,47.459628,-0.605738,,,0,place_GRESIL,,1
GRESILLE,20154,"GRESILLE",,47.459643,-0.605501,,,0,place_GRESIL,,1
GRIMOR-E,24527,"GRIMORELLE",,47.529422,-0.507299,,,0,place_GRIMOR,,0
GRIMOREL,7975,"GRIMORELLE",,47.529494,-0.507307,,,0,place_GRIMOR,,0
GROI 2-E,919401,"LES GROIES 2",,47.492028,-0.399523,,,0,place_GROIE2,,0
GROIES,14865,"LES GROIES 1",,47.494179,-0.404213,,,0,place_GROIE1,,0
GROIES 2,456886,"LES GROIES 2",,47.492026,-0.399656,,,0,place_GROIE2,,0
GROIES-E,23297,"LES GROIES 1",,47.494277,-0.404250,,,0,place_GROIE1,,0
GROLLI-E,30562,"GROLIERE",,47.353982,-0.527609,,,0,place_GROL,,0
GROLLIER,29484,"GROLIERE",,47.353945,-0.527456,,,0,place_GROL,,0
GRUICHE,306120,"LA GRUICHE",,47.553499,-0.453800,,,0,place_GRUICH,,0
GRUICH-E,560134,"LA GRUICHE",,47.553592,-0.453882,,,0,place_GRUICH,,0
GUERAND,12936,"GUERANDAIS",,47.527436,-0.748975,,,0,place_GUERAN,,0
GUERAN-E,12246,"GUERANDAIS",,47.527309,-0.748562,,,0,place_GUERAN,,0
GUICHA-E,16895,"GUICHARD",,47.454681,-0.547997,,,0,place_GUICHA,,1
GUICHARD,21276,"GUICHARD",,47.455296,-0.549254,,,0,place_GUICHA,,1
GUILLAU,785925,"GUILLAUMIERE",,47.533051,-0.671843,,,0,place_GUILLA,,0
GUILL-E,484479,"GUILLAUMIERE",,47.533142,-0.671734,,,0,place_GUILLA,,0
GUILLEB.,13455,"GUILLEBOTTE",,47.437417,-0.513700,,,0,place_GUIRON,,1
GUILLE-E,30927,"GUILLEBOTTE",,47.437282,-0.513290,,,0,place_GUIRON,,1
GUINEZE,18158,"GUINEZERT",,47.461785,-0.630989,,,0,place_GUINEZ,,0
GUINEZ-E,13857,"GUINEZERT",,47.461784,-0.631082,,,0,place_GUINEZ,,0
HARAS,20835,"FOCH HARAS",,47.467124,-0.551936,,,0,place_HARAS,,1
HARAS-E,3412,"FOCH HARAS",,47.467252,-0.552234,,,0,place_HARAS,,1
HARENC,18680,"HARENCHERES",,47.448695,-0.615603,,,0,place_HARENC,,1
HARENC-E,498256,"HARENCHERES",,47.448572,-0.615979,,,0,place_HARENC,,0
HAUBOUCH,4077,"HAUTS DE BOUCHEMAINE",,47.430487,-0.609516,,,0,place_HBOUCH,,1
HAUBOU-E,4893,"HAUTS DE BOUCHEMAINE",,47.430068,-0.609392,,,0,place_HBOUCH,,1
HAUCOUD,318097,"HAUT COUDRAY",,47.530417,-0.624038,,,0,place_HAUCOU,,1
HAUCOU-E,652182,"HAUT COUDRAY",,47.530522,-0.624129,,,0,place_HAUCOU,,1
HAUTE-E,792660,"HAUTE ROCHE",,47.469074,-0.634858,,,0,place_HAUTRO,,0
HAUTERO,20353,"HAUTE ROCHE",,47.469075,-0.634997,,,0,place_HAUTRO,,0
HAUTPR-E,52,"HAUT PRESSOIR",,47.453158,-0.538099,,,0,place_HOPRES,,1
HAUTPRES,2552,"HAUT PRESSOIR",,47.453192,-0.538481,,,0,place_HOPRES,,1
HDVSUB,159454,"HÔTEL DE VILLE",,47.471981,-0.546310,,,0,place_HDVSUB,,1
HDVSUB-A,674817,"HÔTEL DE VILLE",,47.471981,-0.546310,,,0,place_HDVSUB,,1
HERMIT,746837,"HERMITAGE SOUCELLES",,47.584399,-0.416653,,,0,place_HERM32,,1
HERMIT32,1981,"L'HERMITAGE SOUCELLES",,47.584608,-0.417577,,,0,place_HERM32,,0
HERMITAG,16281,"HERMITAGE",,47.477762,-0.635924,,,0,place_HERMIT,,1
HERMIT-E,16836,"HERMITAGE",,47.477759,-0.635303,,,0,place_HERMIT,,1
HERMLT32,3329,"L'HERMITAGE SOUCELLES",,47.584608,-0.417577,,,0,place_HERM32,,0
HIPPOD-E,25720,"HIPPODROME",,47.500888,-0.507814,,,0,place_HIPPOD,,1
HIPPODRO,25067,"HIPPODROME",,47.501229,-0.507431,,,0,place_HIPPOD,,1
HJOU32,18910,"HAIE JOULAIN",,47.517582,-0.462656,,,0,place_HAIJOU,,0
HJOU32-E,32588,"HAIE JOULAIN",,47.517487,-0.462736,,,0,place_HAIJOU,,0
HMAI,11449,"LORRAINE",,47.470340,-0.547199,,,0,place_CENTRE,,1
HMTRE-E,20239,"8 MAI TRELAZE",,47.449399,-0.464995,,,0,place_TREL8M,,1
HMTREL,14635,"8 MAI TRELAZE",,47.449774,-0.465528,,,0,place_TREL8M,,0
HOPA8-C,27358,"CHU - HOPITAL",,47.480652,-0.554831,,,0,place_MATER,,1
HOSGEM-E,6304,"HOPITAL DE SAINTE GEMMES",,47.422965,-0.560815,,,0,place_HOSGEM,,1
HOSGEMME,3118,"HOPITAL DE SAINTE GEMMES",,47.422862,-0.560785,,,0,place_HOSGEM,,1
HOTDIE-E,22507,"HOTEL DIEU",,47.479368,-0.561084,,,0,place_HOPITA,,1
HOTDIEU,4414,"HOTEL DIEU",,47.479199,-0.559338,,,0,place_HOPITA,,1
HOTELL-E,31454,"HOTELLERIE",,47.488845,-0.518958,,,0,place_HOTELL,,0
HOTELLER,30702,"HOTELLERIE",,47.489373,-0.519596,,,0,place_HOTELL,,0
HOUSSAY,802941,"LA HOUSSAYE",,47.586496,-0.457032,,,0,place_HOUSSA,,1
HRECUL-E,1885,"HAUTE DE RECULEE",,47.485014,-0.552912,,,0,place_RECULE,,0
HRECULEE,11114,"HAUTE DE RECULEE",,47.485006,-0.552662,,,0,place_RECULE,,0
HTCHA,635019,"HAUTES CHAPELLES",,47.475770,-0.380959,,,0,place_HAUCHA,,1
HTCHAP-E,72625,"HAUTES CHAPELLES",,47.475810,-0.380867,,,0,place_HAUCHA,,0
HTCHAPEL,969044,"HAUTES CHAPELLES",,47.475858,-0.380862,,,0,place_HAUCHA,,0
HTEBRUY,901720,"LES HAUTES BRUYERES",,47.593430,-0.454441,,,0,place_HAUBRU,,0
HTESBR-E,504742,"LES HAUTES BRUYERES",,47.593485,-0.454302,,,0,place_HAUBRU,,0
HUETTE-E,924330,"HUETTERIE",,47.458948,-0.478936,,,0,place_HUETTE,,0
HUETTERI,899997,"HUETTERIE",,47.459257,-0.478339,,,0,place_HUETTE,,0
HULLET-E,33384,"HULLETERIES",,47.465460,-0.720908,,,0,place_HULLET,,0
HULLETER,25810,"HULLETERIES",,47.465353,-0.720932,,,0,place_HULLET,,0
HUTREA-E,7382,"HUTREAU",,47.431353,-0.555494,,,0,place_HUTREA,,0
HUTREAU,10466,"HUTREAU",,47.432917,-0.554502,,,0,place_HUTREA,,0
HYLIER,471124,"LE HYLIER",,47.585737,-0.402107,,,0,place_HYLIER,,0
I U T,27801,"IUT",,47.480263,-0.602472,,,0,place_IUT,,1
I U T -E,31087,"IUT",,47.480539,-0.602973,,,0,place_IUT,,1
IMTEC,27425,"BOUZINAC",,47.503319,-0.509729,,,0,place_IMTEC,,0
IMTEC-E,31805,"BOUZINAC",,47.503229,-0.509754,,,0,place_IMTEC,,0
INDUST-E,12168,"INDUSTRIE",,47.490015,-0.522870,,,0,place_INDUST,,0
INDUSTRI,11352,"INDUSTRIE",,47.490268,-0.522954,,,0,place_INDUST,,0
INRA,13650,"INRA",,47.474703,-0.611122,,,0,place_INRA,,1
INRA  -E,7366,"INRA",,47.474736,-0.611303,,,0,place_INRA,,1
INTAVR-E,6846,"AUCHAN",,47.518234,-0.606453,,,0,place_INTERA,,1
INTERAVR,29162,"AUCHAN",,47.518696,-0.607586,,,0,place_INTERA,,1
INTERMIL,3434,"INTERMARCHE",,47.454588,-0.534802,,,0,place_INTMIL,,1
INTMIL-E,1195,"INTERMARCHE",,47.455738,-0.533783,,,0,place_INTMIL,,1
INTREP-E,8993,"INTREPIDE",,47.447350,-0.552296,,,0,place_INTREP,,0
INTREPID,14842,"INTREPIDE",,47.447226,-0.552110,,,0,place_INTREP,,0
IRLANDE,8934,"IRLANDE",,47.522992,-0.604978,,,0,place_IRLAND,,1
IRLAND-E,12365,"IRLANDE",,47.523061,-0.604277,,,0,place_IRLAND,,1
ISORET,25741,"ISORET",,47.474718,-0.520832,,,0,place_ISORET,,1
ISORET-E,23628,"ISORET",,47.474436,-0.520149,,,0,place_ISORET,,1
ITALIE,9717,"ITALIE",,47.524529,-0.602375,,,0,place_ITALIE,,1
ITALIE-E,13083,"ITALIE",,47.524767,-0.601998,,,0,place_ITALIE,,1
JANEQU-E,292536,"COLLEGE JANEQUIN",,47.498117,-0.591526,,,0,place_JANEQU,,0
JANEQUIN,297498,"COLLEGE JANEQUIN",,47.498094,-0.591283,,,0,place_JANEQU,,0
JARDBOTA,815390,"JARDIN BOTANIQUE",,47.571711,-0.502605,,,0,place_JARBOT,,0
JARDFA,35425,"JARDINS FAMILIAUX",,47.485557,-0.508433,,,0,place_JARDFA,,1
JARDF-E,46662,"JARDINS FAMILIAUX",,47.485579,-0.508106,,,0,place_JARDFA,,1
JAUDE-E,21218,"JAUDETTE",,47.463316,-0.490954,,,0,place_JAUDET,,0
JAUDET-E,22741,"JAUDETTE",,47.463796,-0.490388,,,0,place_JAUDET,,1
JAUDETT,10931,"JAUDETTE",,47.463300,-0.491129,,,0,place_JAUDET,,0
JAUDETTE,22121,"JAUDETTE",,47.463652,-0.490218,,,0,place_JAUDET,,1
JBODIN,21354,"LYCEE JEAN BODIN",,47.441544,-0.527979,,,0,place_JBODIN,,0
JDELAVAL,276704,"JEANNE DE LAVAL",,47.465674,-0.383837,,,0,place_JEANNE,,0
JDELAV-E,185658,"JEANNE DE LAVAL",,47.465836,-0.383467,,,0,place_JEANNE,,0
JE23-E,11485,"JEAN XXIII",,47.448520,-0.563811,,,0,place_JEAN23,,1
JEAN 23,14455,"JEAN XXIII",,47.448326,-0.563736,,,0,place_JEAN23,,1
JEAN M-E,14704,"MONNET",,47.465477,-0.601311,,,0,place_JEANMO,,1
JEAN MON,12810,"MONNET",,47.465634,-0.601452,,,0,place_JEANMO,,1
JEANNA-E,226219,"COLLÈGE JEANNE D'ARC",,47.520419,-0.465594,,,0,place_JEDARC,,0
JEANNARC,590509,"COLLEGE JEANNE D'ARC",,47.520392,-0.465590,,,0,place_JEDARC,,0
JEANRO-E,256324,"JEAN ROSTAND",,47.448195,-0.501026,,,0,place_ROSTAN,,0
JEANROST,369358,"JEAN ROSTAND",,47.448817,-0.501141,,,0,place_ROSTAN,,0
JEANZA-E,132541,"COLLEGE JEAN ZAY",,47.529678,-0.607583,,,0,place_JEANZA,,0
JEANZAY,602684,"COLLEGE JEAN ZAY",,47.529674,-0.607596,,,0,place_JEANZA,,0
JEBOUI-E,32451,"JEAN BOUIN",,47.458999,-0.532813,,,0,place_JEABOU,,1
JEBOUIN,43885,"JEAN BOUIN",,47.458885,-0.532981,,,0,place_JEABOU,,1
JEBOUT-E,12854,"JEAN BOUTTON",,47.438891,-0.507244,,,0,place_JBOUTO,,1
JEBOUTON,30254,"JEAN BOUTTON",,47.438577,-0.507367,,,0,place_JBOUTO,,1
JEHUEZ,13375,"JEAN HUEZ",,47.530829,-0.594392,,,0,place_JEHUEZ,,0
JEHUEZ-E,27321,"JEAN HUEZ",,47.530884,-0.594262,,,0,place_JEHUEZ,,0
JEJAUR-E,5930,"JEAN JAURES",,47.457683,-0.522819,,,0,place_JAURES,,1
JEJAURES,6732,"JEAN JAURES",,47.457331,-0.523166,,,0,place_JAURES,,1
JEROSTAN,10465,"ROSTAND",,47.434262,-0.513764,,,0,place_JEANRO,,1
JEROST-E,16865,"ROSTAND",,47.434367,-0.514074,,,0,place_JEANRO,,1
JERUSA-E,30745,"JERUSALEM",,47.473541,-0.529699,,,0,place_JERUSA,,1
JERUSALE,23164,"JERUSALEM",,47.473044,-0.530216,,,0,place_JERUSA,,1
JOACH,905575,"JOACHIM DU BELLAY",,47.476439,-0.547666,,,0,place_JOACHI,,1
JOACHI-E,963548,"JOACHIM DU BELLAY",,47.476510,-0.547370,,,0,place_JOACHI,,0
JOACHIM,890943,"JOACHIM DU BELLAY",,47.476510,-0.547370,,,0,place_JOACHI,,0
JUFERR-E,829,"JULES FERRY",,47.466355,-0.498896,,,0,place_JFERRY,,1
JUFERRY,32650,"JULES FERRY",,47.466377,-0.498721,,,0,place_JFERRY,,1
JUIGDEP,15142,"JUIGNE",,47.539949,-0.615383,,,0,place_JUIGNP,,0
JUIGN-E,15158,"JUIGNE",,47.539135,-0.616141,,,0,place_JUIGNP,,0
JUINDRIE,103281,"LES JUINDRIES",,47.506090,-0.382506,,,0,place_JUINDR,,0
JULESV-E,3251,"JULES VERNE",,47.446936,-0.560632,,,0,place_JULEVE,,1
JULESVER,11240,"JULES VERNE",,47.447479,-0.562224,,,0,place_JULEVE,,1
JUSTIC-E,4918,"JUSTICES",,47.453331,-0.526272,,,0,place_JUSTIC,,1
JUSTICES,9099,"JUSTICES",,47.453629,-0.526549,,,0,place_JUSTIC,,1
KENNED-E,21066,"KENNEDY",,47.492160,-0.577153,,,0,place_KENNED,,1
KENNEDY,32307,"KENNEDY",,47.492142,-0.577349,,,0,place_KENNED,,1
LA BOI-E,19259,"LA BOISSIERE",,47.504706,-0.600175,,,0,place_BOISSI,,1
LA BOISS,15667,"LA BOISSIERE",,47.504770,-0.599956,,,0,place_BOISSI,,1
LABA32-E,12328,"LA BARRE VILLEVEQUE",,47.552193,-0.429209,,,0,place_LABARV,,0
LABARR32,26356,"LA BARRE VILLEVEQUE",,47.552249,-0.429346,,,0,place_LABARV,,0
LABARRE,26186,"LA BARRE",,47.473183,-0.597398,,,0,place_BARRE,,0
LABARR-E,24553,"LA BARRE",,47.473237,-0.598199,,,0,place_BARRE,,0
LABROS-E,19344,"LA BROSSE ECOUFLANT",,47.532455,-0.522145,,,0,place_LABROS,,0
LABROSSE,11507,"LA BROSSE ECOUFLANT",,47.532539,-0.522099,,,0,place_LABROS,,0
LABRUY-E,15826,"LA BRUYERE",,47.476457,-0.573345,,,0,place_LABRUY,,1
LABRUYER,2726,"LA BRUYERE",,47.476594,-0.573899,,,0,place_LABRUY,,1
LABUIS-E,24945,"LA BUISSAIE",,47.396155,-0.552376,,,0,place_BUISSA,,1
LABUISSA,24161,"LA BUISSAIE",,47.396104,-0.552000,,,0,place_BUISSA,,1
LACACC-E,16598,"MAISON DE L'ENVIRONNEMENT",,47.464050,-0.594329,,,0,place_MAIENV,,1
LACACCUE,15782,"MAISON DE L'ENVIRONNEMENT",,47.464238,-0.593932,,,0,place_MAIENV,,1
LACDMA-E,27440,"LAC DE MAINE NAUTIQUE",,47.461097,-0.596384,,,0,place_LDMNAU,,1
LACDMAIN,30379,"LAC DE MAINE NAUTIQUE",,47.461185,-0.596030,,,0,place_LDMNAU,,1
LACOUD-E,19006,"LA COUDRE",,47.460484,-0.710327,,,0,place_LACOUD,,0
LACOUDRE,14817,"LA COUDRE",,47.460641,-0.710428,,,0,place_LACOUD,,0
LACROIX,98921,"LA CROIX",,47.417821,-0.314498,,,0,place_LACROI,,0
LAEN-E,66371,"LAENNEC",,47.539430,-0.618642,,,0,place_LAENEC,,1
LAENN,43968,"LAENNEC",,47.539332,-0.618370,,,0,place_LAENEC,,1
LAFA8-C,19461,"PLACE LA FAYETTE",,47.460455,-0.554351,,,0,place_PLFAYE,,1
LAFA8-E,6452,"PLACE LA FAYETTE",,47.460311,-0.554852,,,0,place_PLFAYE,,1
LAFAUV-E,17497,"LA FAUVELAIS",,47.451961,-0.512129,,,0,place_LAFAUV,,0
LAFAUVEL,8205,"LA FAUVELAIS",,47.452170,-0.512768,,,0,place_LAFAUV,,0
LAGLOU-E,32242,"GLOUTIERE",,47.508178,-0.643696,,,0,place_GLOUTI,,0
LAGLOUTI,1095,"GLOUTIERE",,47.509386,-0.646220,,,0,place_GLOUTI,,0
LAGRAN-E,11339,"LA GRANGE",,47.504497,-0.636804,,,0,place_GRANGE,,0
LAGRANGE,26550,"LA GRANGE",,47.503282,-0.632464,,,0,place_GRANGE,,0
LAJANV-E,31442,"JANVRIE",,47.504213,-0.699937,,,0,place_JANVRI,,0
LAJANVRI,29429,"JANVRIE",,47.504017,-0.699654,,,0,place_JANVRI,,0
LALANDE,30783,"LANDE",,47.562290,-0.585439,,,0,place_LANDE,,0
LALAN-E,8374,"LANDE",,47.562431,-0.585311,,,0,place_LANDE,,0
LAMAIL-E,505607,"LA MAILLÉE",,47.485132,-0.391329,,,0,place_MAILLE,,0
LAMAILLE,424217,"LA MAILLÉE",,47.485065,-0.391433,,,0,place_MAILLE,,0
LAMARE,25707,"LA MARE",,47.468452,-0.465301,,,0,place_LAMARE,,0
LAMARE-E,691886,"LA MARE",,47.468348,-0.465286,,,0,place_LAMARE,,0
LAMART,79764,"LAREVELLIERE",,47.471223,-0.531822,,,0,place_LAREVE,,1
LAMART-E,2631,"LAREVELLIERE",,47.471309,-0.533634,,,0,place_LAREVE,,1
LANDREAU,29073,"LE LANDREAU",,47.474025,-0.617838,,,0,place_LANDRE,,1
LANDRE-E,31271,"LE LANDREAU",,47.474163,-0.617850,,,0,place_LANDRE,,1
LANGE-E,20985,"LANGEVIN",,47.518469,-0.612125,,,0,place_ZICCAD,,0
LANGEV-E,24587,"LANGEVINE",,47.478757,-0.691913,,,0,place_LANGEV,,0
LANGEVI,20461,"LANGEVIN",,47.518469,-0.612125,,,0,place_ZICCAD,,0
LANGEVIN,23618,"LANGEVINE",,47.477812,-0.692010,,,0,place_LANGEV,,0
LAPLES-E,7870,"LA PLESSE",,47.499554,-0.620452,,,0,place_LAPLES,,0
LAPLESSE,22986,"LA PLESSE",,47.499411,-0.620368,,,0,place_LAPLES,,0
LAPOIN-E,17596,"LA POINTE",,47.409872,-0.620310,,,0,place_LAPOIN,,0
LAPOINTE,16943,"LA POINTE",,47.410287,-0.619839,,,0,place_LAPOIN,,0
LAREU-E,13697,"LA REUX",,47.469410,-0.510411,,,0,place_LAREUX,,1
LAREUX,31088,"LA REUX",,47.469546,-0.510575,,,0,place_LAREUX,,1
LAROCHE,5358,"LA ROCHE",,47.458100,-0.656934,,,0,place_LAROCH,,0
LAUD,1162,"BODINIER",,47.472656,-0.553225,,,0,place_BODINI,,0
LAUD-E,750061,"BODINIER",,47.472842,-0.553270,,,0,place_BODINI,,0
LAV SC-E,108070,"LAVOIR SCOLAIRE",,47.440876,-0.498629,,,0,place_LAVOIR,,0
LAV SCOL,561692,"LAVOIR Scolaire",,47.441020,-0.498498,,,0,place_LAVOIR,,0
LAVOIR,327,"LAVOIR",,47.440630,-0.498864,,,0,place_LAVOIR,,1
LAVOIR-E,10144,"LAVOIR",,47.440760,-0.498970,,,0,place_LAVOIR,,1
LBALUE-E,28840,"BALUERES",,47.377630,-0.524851,,,0,place_BALUER,,0
LBALUERE,37252,"BALUERES",,47.377628,-0.524673,,,0,place_BALUER,,0
LCHATA-E,28519,"CHATAIGNERAIE",,47.441224,-0.607768,,,0,place_LCHATA,,1
LCHATAIG,30413,"CHATAIGNERAIE",,47.441338,-0.607800,,,0,place_LCHATA,,1
LE CLO-E,211710,"LE CLOS",,47.424655,-0.427995,,,0,place_LECLOS,,0
LE CLOS,600179,"LE CLOS",,47.424661,-0.428128,,,0,place_LECLOS,,0
LE PRE,776914,"LE PRÉ",,47.515116,-0.584947,,,0,place_LEPRE,,1
LE PRE-E,66363,"LE PRÉ",,47.515260,-0.585106,,,0,place_LEPRE,,1
LECHENE,12874,"LE CHENE",,47.420953,-0.575995,,,0,place_LECHEN,,0
LECHEN-E,9672,"LE CHENE",,47.420738,-0.577473,,,0,place_LECHEN,,0
LECL05-E,18831,"LECLERC",,47.483002,-0.575738,,,0,place_LECLER,,1
LECLERC5,32620,"LECLERC",,47.483075,-0.576015,,,0,place_LECLER,,1
LECLSY-E,30324,"MARECHAL LECLERC",,47.518415,-0.466724,,,0,place_LECSTS,,1
LECLSYLV,29018,"MARECHAL LECLERC",,47.518515,-0.466522,,,0,place_LECSTS,,1
LECOLO-E,26859,"ROUTE DU PLESSIS",,47.525467,-0.666849,,,0,place_RTEPLE,,0
LECOLOM,31338,"ROUTE DU PLESSIS",,47.525618,-0.667273,,,0,place_RTEPLE,,0
LECORB-E,1502,"LE CORBUSIER",,47.485453,-0.630886,,,0,place_LECORB,,1
LECORBUS,12622,"LE CORBUSIER",,47.484404,-0.631786,,,0,place_LECORB,,1
LECOTEAU,25663,"LE COTEAU",,47.398239,-0.548674,,,0,place_COTEAU,,1
LECOTE-E,26708,"LE COTEAU",,47.398038,-0.549055,,,0,place_COTEAU,,1
LECUIT,25536,"LECUIT",,47.489261,-0.563016,,,0,place_LECUIT,,1
LECUIT-E,28784,"LECUIT",,47.489452,-0.562763,,,0,place_LECUIT,,1
LEDENI-E,6895,"MAISON DU LAC",,47.466089,-0.597783,,,0,place_MAILAC,,1
LEDENIER,6046,"MAISON DU LAC",,47.466007,-0.598900,,,0,place_MAILAC,,1
LEFEVRE,15440,"LEFEVRE",,47.443291,-0.488697,,,0,place_LEFEVR,,1
LEFEVR-E,16289,"LEFEVRE",,47.443181,-0.489166,,,0,place_LEFEVR,,1
LEGRAS,24887,"LEGRAS",,47.529259,-0.566971,,,0,place_LEGRAS,,0
LEGRAS-E,11618,"LEGRAS",,47.529174,-0.566890,,,0,place_LEGRAS,,0
LEMERC-E,15956,"LEMERCIER",,47.498615,-0.522428,,,0,place_LEMERC,,0
LEMERCIE,15271,"LEMERCIER",,47.498671,-0.522651,,,0,place_LEMERC,,0
LEOLA2-E,5985,"LEO LAGRANGE",,47.447816,-0.510352,,,0,place_LEOLAG,,1
LEOLAGRA,5291,"LEO LAGRANGE",,47.447837,-0.509933,,,0,place_LEOLAG,,1
LESECO-E,7610,"LES ECOTS",,47.475507,-0.695793,,,0,place_ECOTS,,0
LESECOTS,19016,"LES ECOTS",,47.475558,-0.695527,,,0,place_ECOTS,,0
LESGARES,20210,"LES GARES",,47.465168,-0.555790,,,0,place_GARE,,1
LESGAT-E,24961,"LES GAS",,47.514576,-0.659575,,,0,place_LESGAS,,0
LESGRA-E,324614,"LES GRAPPES",,47.426565,-0.301213,,,0,place_GRAPPE,,0
LESLANDE,2090,"ROBINIERES",,47.470340,-0.697249,,,0,place_ROBINI,,0
LESLAN-E,8170,"ROBINIERES",,47.470718,-0.697247,,,0,place_ROBINI,,0
LESRIV-E,26528,"LES RIVES",,47.526712,-0.525072,,,0,place_LESRIV,,0
LESRIVES,31416,"LES RIVES",,47.526623,-0.525087,,,0,place_LESRIV,,0
LESROS-E,25672,"LES ROSES",,47.426867,-0.551627,,,0,place_LESROS,,0
LESROSES,5502,"LES ROSES",,47.427059,-0.551364,,,0,place_LESROS,,0
LESSAR-E,23657,"LES ESSARTS",,47.469187,-0.736800,,,0,place_LESSAR,,0
LESSARTS,25628,"LES ESSARTS",,47.469086,-0.736728,,,0,place_LESSAR,,0
LETAND16,27068,"LETANDUERE",,47.452805,-0.553174,,,0,place_LETAND,,1
LETAND-E,13125,"LETANDUERE",,47.453058,-0.553309,,,0,place_LETAND,,1
LEVESQ-E,29876,"LEVESQUE",,47.402264,-0.534475,,,0,place_LEVESQ,,1
LEVESQUE,29223,"LEVESQUE",,47.402198,-0.533443,,,0,place_LEVESQ,,1
LHOI11-E,19931,"LAC DE MAINE - L'HOIRIE",,47.467167,-0.618490,,,0,place_LHOIRI,,1
LHOIRI11,32088,"LAC DE MAINE - L'HOIRIE",,47.467056,-0.618262,,,0,place_LHOIRI,,0
LHOIRI-E,7844,"LAC DE MAINE - L'HOIRIE",,47.467031,-0.618365,,,0,place_LHOIRI,,0
LICES,11754,"LICES",,47.467114,-0.554489,,,0,place_LIC,,1
LICES -E,12276,"LICES",,47.466947,-0.554650,,,0,place_LIC,,1
LILAS,6187,"LILAS",,47.459435,-0.662992,,,0,place_LILAS,,0
LILAS-E,17216,"LILAS",,47.459544,-0.663041,,,0,place_LILAS,,0
LINOVE-E,7167,"LINO VENTURA",,47.447160,-0.529189,,,0,place_LINOVE,,1
LINOVENT,31038,"LINO VENTURA",,47.447568,-0.529145,,,0,place_LINOVE,,1
LIZE,14789,"LIZE",,47.486849,-0.573163,,,0,place_LIZE39,,1
LIZE -E,18714,"LIZE",,47.486878,-0.572975,,,0,place_LIZE39,,1
LIZE.,26415,"LIZE",,47.487126,-0.574408,,,0,place_LIZE,,1
LIZE05-E,27387,"LIZE",,47.486884,-0.574495,,,0,place_LIZE,,1
LMARZE-E,29867,"HAUTE MARZELLE",,47.342927,-0.529723,,,0,place_LESMAR,,0
LMARZELL,2200,"HAUTE MARZELLE",,47.343053,-0.529608,,,0,place_LESMAR,,0
LOHUIT,5526,"LORRAINE",,47.470224,-0.547149,,,0,place_CENTRE,,1
LOIRE,14252,"LOIRE",,47.418758,-0.523356,,,0,place_STLAUD,,1
LOIRE -E,30797,"LOIRE",,47.417786,-0.523584,,,0,place_STLAUD,,1
LOMBARD,43351,"LOMBARDIERES",,47.442497,-0.690358,,,0,place_LOMBAR,,0
LOMBAR-E,1349,"LOMBARDIERES",,47.442609,-0.690661,,,0,place_LOMBAR,,0
LORETTE,7966,"LORETTE",,47.451326,-0.548029,,,0,place_LORETT,,0
LORETT-E,9272,"LORETTE",,47.451214,-0.547596,,,0,place_LORETT,,0
LOR-FO-A,3039,"FOCH MAISON BLEUE",,47.469630,-0.548574,,,0,place_CENTRE,,1
LORPLM,22199,"L'OREE",,47.542630,-0.672404,,,0,place_LORPLM,,0
LORPLM-E,8507,"L'OREE",,47.542585,-0.672335,,,0,place_LORPLM,,0
LORR3BIS,29230,"LORRAINE",,47.470057,-0.547885,,,0,place_CENTRE,,0
LORRAIN1,20636,"LORRAINE",,47.470220,-0.547761,,,0,place_CENTRE,,1
LORRAIN2,31902,"LORRAINE",,47.470056,-0.547885,,,0,place_CENTRE,,0
LORRTERM,23465,"LORRAINE",,47.470190,-0.547600,,,0,place_CENTRE,,1
LORTIE-E,864598,"L'ORTIER",,47.571234,-0.426110,,,0,place_LORTIE,,1
LORTIER,323427,"L'ORTIER",,47.571415,-0.426560,,,0,place_LORTIE,,1
LOTISS-E,411,"LOTISSEMENT DE VILLEVEQUE",,47.556726,-0.424144,,,0,place_VILVLO,,0
LOTISSEM,29903,"LOTISSEMENT DE VILLEVEQUE",,47.556619,-0.424478,,,0,place_VILVLO,,0
LOTVIL-E,788224,"LOTISSEMENT VILLEVEQUE",,47.556566,-0.425561,,,0,place_LOTSCO,,0
LOTVILSC,477611,"LOTISSEMENT VILLEVEQUE",,47.556469,-0.425549,,,0,place_LOTSCO,,0
LOUET,10203,"LOUET",,47.412223,-0.523611,,,0,place_LOUET,,0
LOUET -E,10791,"LOUET",,47.412455,-0.523934,,,0,place_LOUET,,0
LOUPIN-E,26592,"LOUPINOT",,47.424594,-0.552657,,,0,place_LOUPIN,,0
LOUPINO,22893,"LOUPINOT",,47.424534,-0.552507,,,0,place_LOUPIN,,0
LTAC-E,242,"BOURG DE SOULAINES",,47.364607,-0.525048,,,0,place_BOUSOU,,0
LTACHON,10237,"BOURG DE SOULAINES",,47.365002,-0.525149,,,0,place_BOUSOU,,0
LUTIN,32534,"LUTIN",,47.475761,-0.534420,,,0,place_LUTIN,,1
LUTIN -E,485,"LUTIN",,47.475729,-0.534174,,,0,place_LUTIN,,1
LYCEEJMO,28865,"JEAN MOULIN",,47.492399,-0.551893,,,0,place_JMOULI,,1
LYCJMO-E,6081,"JEAN MOULIN",,47.492224,-0.551831,,,0,place_JMOULI,,1
MA4VE-E,22693,"MAIL DES QUATRE VENTS",,47.531851,-0.528449,,,0,place_MAQUAT,,0
MACASSAT,16044,"MARY CASSATT",,47.511242,-0.602734,,,0,place_CASSAT,,0
MACASS-E,8001,"MARY CASSATT",,47.510508,-0.604324,,,0,place_CASSAT,,0
MACE,23738,"MACE",,47.476645,-0.532737,,,0,place_MACE,,1
MACE  -E,24326,"MACE",,47.477009,-0.531731,,,0,place_MACE,,1
MACURIE,12294,"MARIE CURIE",,47.433308,-0.516555,,,0,place_MARIEC,,1
MACURI-E,15853,"MARIE CURIE",,47.433310,-0.517047,,,0,place_MARIEC,,1
MADELE-E,10442,"MADELEINE",,47.459044,-0.535589,,,0,place_MADE,,1
MADELEIN,20411,"MADELEINE",,47.459277,-0.535680,,,0,place_MADE,,1
MAETUD-E,25699,"POLYTECH ANGERS",,47.480635,-0.594586,,,0,place_MAETUD,,1
MAETUDIA,25548,"POLYTECH ANGERS",,47.480575,-0.594592,,,0,place_MAETUD,,1
MAI4VEN,30964,"MAIL DES QUATRE VENTS",,47.531792,-0.528554,,,0,place_MAQUAT,,0
MAIL-HDV,7828,"MAIL",,47.471080,-0.546309,,,0,place_MA-HDV,,1
MAIL-NAE,15219,"MAIL",,47.471272,-0.546578,,,0,place_MA-HDV,,1
MAIRAV-E,14192,"MAIRIE D'AVRILLE",,47.504954,-0.590814,,,0,place_MAIRAV,,1
MAIRAVR,11971,"MAIRIE D'AVRILLE",,47.504486,-0.589939,,,0,place_MAIRAV,,1
MAIRTR-E,3669,"MAIRIE DE TRELAZE",,47.445486,-0.468266,,,0,place_TREMAI,,1
MAIRTREL,26533,"MAIRIE DE TRELAZE",,47.445663,-0.469170,,,0,place_TREMAI,,1
MAISNE-E,819362,"MAISON NEUVE",,47.453832,-0.428021,,,0,place_MAINEU,,0
MAISNEUV,475623,"MAISON NEUVE",,47.454514,-0.428178,,,0,place_MAINEU,,0
MAISONSR,8771,"MAISONS ROUGES",,47.474491,-0.511925,,,0,place_MAIROU,,1
MAISRO-E,17645,"MAISONS ROUGES",,47.474413,-0.511809,,,0,place_MAIROU,,1
MAJUIN5B,39157,"MARECHAL JUIN",,47.449933,-0.567879,,,0,place_MAREJU,,1
MALAQUAI,38447,"MALAQUAIS",,47.444369,-0.490370,,,0,place_MALAQU,,0
MALAQU-E,27851,"MALAQUAIS",,47.444013,-0.490241,,,0,place_MALAQU,,1
MALBOI-E,576278,"MALBOIRE",,47.481774,-0.413922,,,0,place_MALBOI,,0
MALBOIRE,671943,"MALBOIRE",,47.481863,-0.414045,,,0,place_MALBOI,,0
MALEMBAR,753,"ZI TRELAZE - MALEMBARDIERES",,47.451656,-0.473425,,,0,place_MALEMB,,0
MALEMB-E,1504,"ZI TRELAZE - MALEMBARDIERES",,47.451650,-0.473398,,,0,place_MALEMB,,0
MALNOUE,193265,"MALNOUE",,47.369096,-0.517249,,,0,place_MALNOU,,0
MALNOU-E,863688,"MALNOUE",,47.369009,-0.517156,,,0,place_MALNOU,,0
MANSIO-E,211544,"MANSION",,47.477099,-0.588032,,,0,place_MANSIO,,1
MANSION,757176,"MANSION",,47.477068,-0.588244,,,0,place_MANSIO,,1
MAPTCEAR,402751,"MAIRIE DES PONTS DE CE",,47.425279,-0.523583,,,0,place_PONTSC,,0
MAPTSCE,9963,"MAIRIE DES PONTS DE CE",,47.425279,-0.523583,,,0,place_PONTSC,,0
MAREJU-E,17469,"MARECHAL JUIN",,47.449747,-0.568123,,,0,place_MAREJU,,1
MARIAN-E,28799,"MARIANNE",,47.450058,-0.531100,,,0,place_MARIAN,,1
MARIANNE,6575,"MARIANNE",,47.450169,-0.531088,,,0,place_MARIAN,,1
MARMIT-E,266529,"MARMITIÈRE",,47.466692,-0.490715,,,0,place_MARMIT,,0
MARMITIE,28460,"MARMITIÈRE",,47.466682,-0.490557,,,0,place_MARMIT,,0
MAROTT-E,3203,"MAROTTIERES",,47.536270,-0.568630,,,0,place_MAROTT,,0
MAROTTIE,10301,"MAROTTIERES",,47.536321,-0.568907,,,0,place_MAROTT,,0
MARSAULA,547381,"MARSAULAIE",,47.415556,-0.343703,,,0,place_MARSAU,,0
MASGEM-E,29461,"MAIRIE DE SAINTE GEMMES",,47.422881,-0.556596,,,0,place_MAIRSG,,1
MASGEMME,3967,"MAIRIE DE SAINTE GEMMES",,47.422772,-0.556545,,,0,place_MAIRSG,,1
MASJLI-E,20082,"MAIRIE DE SAINT JEAN DE LINIERES",,47.458643,-0.658927,,,0,place_STJEMA,,0
MASJLIN,20807,"MAIRIE DE SAINT JEAN DE LINIERES",,47.458073,-0.658441,,,0,place_STJEMA,,0
MASSON,12311,"MASSON",,47.531740,-0.567494,,,0,place_CANTEN,,0
MASSON-E,16344,"MASSON",,47.532101,-0.567767,,,0,place_CANTEN,,0
MASTEL-E,17386,"MASTELLE",,47.529387,-0.591988,,,0,place_MASTEL,,1
MASTELLE,16341,"MASTELLE",,47.529427,-0.592483,,,0,place_MASTEL,,1
MASTSY,460558,"MAIRIE DE SAINT SYLVAIN",,47.519873,-0.471085,,,0,place_GARD-D,,1
MATE25-E,11509,"CHU - HOPITAL",,47.480652,-0.554831,,,0,place_MATER,,0
MATER89,10739,"MARTINIERE",,47.608591,-0.563632,,,0,place_MARTI,,0
MATERN25,700,"MARTINIERE",,47.608553,-0.563781,,,0,place_MARTI,,0
MAUFINE,36835,"MAUFINEE",,47.502189,-0.589171,,,0,place_MAUFIN,,1
MAUFIN-E,17293,"MAUFINEE",,47.502602,-0.588821,,,0,place_MAUFIN,,1
MAUPER-E,24902,"MAUPERTHUIS",,47.433634,-0.485702,,,0,place_MAUPER,,0
MAUPERTH,5939,"MAUPERTHUIS",,47.433899,-0.485588,,,0,place_MAUPER,,0
MAURIAC,17599,"MALRAUX",,47.457459,-0.473549,,,0,place_MALRAU,,1
MAURIA-E,24260,"MALRAUX",,47.457624,-0.473336,,,0,place_MALRAU,,1
MBRIAN-E,380053,"MARIUS BRIANT",,47.474045,-0.577449,,,0,place_MBRIAN,,1
MBRIANT,809387,"MARIUS BRIANT",,47.473963,-0.577590,,,0,place_MBRIAN,,1
MEIG34-E,7347,"EGLISE DE LA MEIGNANNE",,47.519711,-0.667550,,,0,place_MEIGNA,,0
MEIGNA34,22128,"EGLISE DE LA MEIGNANNE",,47.519273,-0.667865,,,0,place_MEIGNA,,0
MEIGNA-E,11052,"LA MEIGNANNE",,47.484411,-0.582622,,,0,place_RUMEIG,,1
MEIGNANN,10399,"LA MEIGNANNE",,47.483984,-0.582208,,,0,place_RUMEIG,,1
MELGRA-E,5864,"MELGRANI",,47.477923,-0.591616,,,0,place_MELGRA,,0
MELGRANI,9954,"MELGRANI",,47.477777,-0.592090,,,0,place_MELGRA,,0
MEMBMA-E,3254,"MAIRIE DE LA MEMBROLLE",,47.560763,-0.672784,,,0,place_MEMBRO,,0
MEMBRO-E,26396,"BOURG DE LA MEMBROLLE",,47.558425,-0.669713,,,0,place_MEMBOU,,0
MEMBROLL,3150,"BOURG DE LA MEMBROLLE",,47.558544,-0.670130,,,0,place_MEMBOU,,0
MEMMAIR,4208,"MAIRIE DE LA MEMBROLLE",,47.560825,-0.673070,,,0,place_MEMBRO,,0
MENA-E,6305,"MENARD",,47.445717,-0.493686,,,0,place_MENARD,,1
MENARD,20226,"MENARD",,47.445845,-0.493867,,,0,place_MENARD,,0
MENDES-E,25308,"MENDES FRANCE",,47.472945,-0.545600,,,0,place_MENDSU,,1
MENDESFR,10353,"MENDES FRANCE",,47.472555,-0.546239,,,0,place_MENDSU,,1
MERCIE-E,11750,"MERCIER",,47.492614,-0.458460,,,0,place_MERCIE,,0
MERCIER,7042,"MERCIER",,47.492649,-0.458743,,,0,place_MERCIE,,0
MERMOZ,21926,"COLLEGE MERMOZ",,47.451897,-0.566805,,,0,place_MERMOZ,,1
MERMOZ-E,432615,"COLLEGE MERMOZ",,47.451842,-0.566699,,,0,place_MERMOZ,,1
MICHEL-E,5053,"MICHELET",,47.462862,-0.544243,,,0,place_MICHEL,,1
MICHELET,28118,"MICHELET",,47.463532,-0.545509,,,0,place_MICHEL,,1
MILLARDI,28787,"MILLARDIERE",,47.513771,-0.473682,,,0,place_MILLAR,,1
MILLAR-E,10309,"MILLARDIERE",,47.513919,-0.473746,,,0,place_MILLAR,,1
MILLCO-E,18612,"MILLOT SCOLAIRE",,47.456762,-0.533280,,,0,place_MILLOT,,0
MILLOT.,4218,"SAUMUROISE",,47.457313,-0.532501,,,0,place_SAUMUR,,1
MILLOTCO,6963,"MILLOT SCOLAIRE",,47.456943,-0.533423,,,0,place_MILLOT,,0
MILLOT-E,2926,"SAUMUROISE",,47.456802,-0.531904,,,0,place_SAUMUR,,1
MINDIE-E,452383,"CHEMIN DE LA MINDIERE",,47.440089,-0.630436,,,0,place_MINDIE,,0
MINDIERE,800356,"CHEMIN DE LA MINDIERE",,47.440000,-0.630454,,,0,place_MINDIE,,0
MIRABEAU,9907,"MIRABEAU",,47.460082,-0.550322,,,0,place_MIRABE,,1
MIRABE-E,9418,"MIRABEAU",,47.459474,-0.548839,,,0,place_MIRABE,,1
MIRBEAU,28498,"MIRBEAU",,47.488222,-0.510787,,,0,place_MIRBEA,,0
MIRBE-E,15613,"MIRBEAU",,47.488428,-0.509992,,,0,place_MIRBEA,,0
MLYAUT-E,22959,"MARECHAL LYAUTEY",,47.491833,-0.583737,,,0,place_MLYAU,,1
MLYAUTEY,15814,"MARECHAL LYAUTEY",,47.491712,-0.583773,,,0,place_MLYAU,,1
MOLIER10,19106,"MOLIERE",,47.473889,-0.555322,,,0,place_MOLIER,,1
MOLINE-E,25255,"MOLINERIE",,47.521410,-0.666726,,,0,place_MOLINE,,0
MOLINERI,8190,"MOLINERIE",,47.521471,-0.666890,,,0,place_MOLINE,,0
MON1,7834,"MONGAZON",,47.460963,-0.528672,,,0,place_MONGAZ,,1
MONCEA-E,810372,"MONCEAU",,47.472331,-0.389562,,,0,place_MONCEA,,0
MONCEAU,698763,"MONCEAU",,47.472424,-0.389729,,,0,place_MONCEA,,0
MONGELIE,313094,"LA MONGELIERE",,47.585979,-0.412381,,,0,place_MONGEL,,0
MONNAIE,643212,"LA MONNAIE",,47.445158,-0.512411,,,0,place_MONNAI,,0
MONNAI-E,228036,"LA MONNAIE",,47.445042,-0.512496,,,0,place_MONNAI,,0
MONNIE-E,2398,"MONNIER",,47.402594,-0.525298,,,0,place_MONNIE,,1
MONNIER,1582,"MONNIER",,47.403184,-0.525010,,,0,place_MONNIE,,1
MONOD,15527,"MONOD",,47.478725,-0.636641,,,0,place_MONOD,,1
MONOD-E,20101,"MONOD",,47.478985,-0.636379,,,0,place_MONOD,,1
MONPEV-E,4984,"MONPLAISIR",,47.490664,-0.527347,,,0,place_MONPLA,,0
MONPL AR,2607,"MONPLAISIR",,47.491150,-0.528297,,,0,place_MONPLA,,1
MONPL22,7399,"MONPLAISIR",,47.491047,-0.527690,,,0,place_MONPLA,,1
MONPLAIS,4795,"MONPLAISIR",,47.491150,-0.528297,,,0,place_MONPLA,,1
MONPR -E,15116,"MONPROFIT",,47.474540,-0.567088,,,0,place_PMONPR,,1
MONPRO-E,29694,"MONPROFIT",,47.474342,-0.566696,,,0,place_PMONPR,,1
MONPROF.,29382,"MONPROFIT",,47.474262,-0.566607,,,0,place_PMONPR,,1
MONPROFI,18765,"MONPROFIT",,47.474657,-0.567518,,,0,place_PMONPR,,1
MONTAI-E,19218,"MONTAIGNE",,47.469498,-0.531587,,,0,place_MONTAI,,0
MONTAIG,11328,"MONTAIGNE",,47.470787,-0.531421,,,0,place_MONTAI,,1
MONTCA-E,18547,"MONT CASSIN",,47.447152,-0.569576,,,0,place_MONTCA,,1
MONTCASB,13329,"MONT CASSIN",,47.447246,-0.569376,,,0,place_MONTCA,,1
MONTEC-E,16464,"MONTECLAIR",,47.464406,-0.604797,,,0,place_MONTEC,,1
MONTECLA,15647,"MONTECLAIR",,47.464498,-0.604803,,,0,place_MONTEC,,1
MONTES-E,16671,"MONTESQUIEU",,47.473792,-0.579208,,,0,place_MONTES,,0
MONTESQU,27063,"MONTESQUIEU",,47.473696,-0.580367,,,0,place_MONTES,,0
MONTHIBE,4518,"MONTHIBERT",,47.444740,-0.473878,,,0,place_MONTHI,,1
MONTHI-E,5661,"MONTHIBERT",,47.444623,-0.473302,,,0,place_MONTHI,,1
MONTREP,27125,"REPUBLIQUE MONTREUIL",,47.528839,-0.611208,,,0,place_MONREP,,1
MOREL,6292,"MOREL",,47.474901,-0.608484,,,0,place_MOREL,,1
MOREL-E,6741,"MOREL",,47.474985,-0.608520,,,0,place_MOREL,,1
MORELE-E,4569,"MORELLERIE",,47.451234,-0.544820,,,0,place_MORELL,,1
MORELI-E,6659,"MORELLERIE",,47.451671,-0.545334,,,0,place_MORELL,,1
MORELL,10611,"MORELLERIE",,47.453005,-0.545092,,,0,place_MORELL,,1
MORELL-E,16834,"MORELLERIE",,47.452732,-0.545147,,,0,place_MORELL,,1
MORELLER,495,"MORELLERIE",,47.451387,-0.544936,,,0,place_MORELL,,1
MORELLIE,5810,"MORELLERIE",,47.451809,-0.545323,,,0,place_MORELL,,1
MORET-E,25664,"MORETTE",,47.604393,-0.560887,,,0,place_MORETT,,0
MORETT,2925,"MORETTE",,47.604318,-0.561001,,,0,place_MORETT,,0
MORICI-E,60430,"MORICIERE",,47.485166,-0.357232,,,0,place_MORICI,,0
MORICIER,359213,"MORICIERE",,47.485096,-0.357342,,,0,place_MORICI,,0
MORLIE-E,18333,"MORLIÈRE",,47.461561,-0.482348,,,0,place_MORLIE,,1
MORLIERE,17581,"MORLIÈRE",,47.461534,-0.482512,,,0,place_MORLIE,,1
MORSUB,850214,"MOREL",,47.474910,-0.607334,,,0,place_MOREL,,0
MORSU-E,77571,"MOREL",,47.475030,-0.607321,,,0,place_MOREL,,0
MOULANDE,871271,"MOULIN DES LANDES",,47.530060,-0.476338,,,0,place_MOULAN,,0
MOULAN-E,186690,"MOULIN DES LANDES",,47.530148,-0.476364,,,0,place_MOULAN,,0
MOULINER,917875,"LA MOULINERIE",,47.592385,-0.421864,,,0,place_MOULI,,0
MOULINMA,32614,"MOULIN MARCILLE",,47.433767,-0.500566,,,0,place_MOULIN,,1
MOUMA-E,19608,"MOULIN MARCILLE",,47.433756,-0.500578,,,0,place_MOULIN,,1
MOUNLYCE,24085,"MOUNIER LYCEE",,47.490890,-0.526878,,,0,place_MOUNLY,,0
MOUNLY-E,3200,"MOUNIER LYCEE",,47.490896,-0.526917,,,0,place_MOUNLY,,0
MPLAIS-E,4333,"MONPLAISIR PLESSIS GRAMMOIRE",,47.499763,-0.428812,,,0,place_MPLAIS,,0
MPLAISIR,9967,"MONPLAISIR PLESSIS GRAMMOIRE",,47.499420,-0.430363,,,0,place_MPLAIS,,0
MURIER,810277,"LE MURIER",,47.514058,-0.376578,,,0,place_MURIER,,0
MURS  AR,23315,"MURS ERIGNE",,47.395471,-0.555684,,,0,place_MURS,,0
MURSERIG,22074,"MURS ERIGNE",,47.395497,-0.555668,,,0,place_MURS,,0
MURSHDV,7383,"HOTEL DE VILLE MURS ERIGNE",,47.401767,-0.536509,,,0,place_HOTELD,,1
MURSHV-E,30163,"HOTEL DE VILLE MURS ERIGNE",,47.401887,-0.537197,,,0,place_HOTELD,,1
MUSSET,21453,"MUSSET",,47.473724,-0.539747,,,0,place_MUSSET,,1
MUSSET-E,22824,"MUSSET",,47.473624,-0.538720,,,0,place_MUSSET,,1
MUTUAL-E,25011,"MUTUALITE",,47.455262,-0.540817,,,0,place_MUTUAL,,1
MUTUALIT,32144,"MUTUALITE",,47.455800,-0.540826,,,0,place_MUTUAL,,1
MVIGNE,358268,"MARCEL VIGNE",,47.475012,-0.582192,,,0,place_MVIGNE,,1
MVIGNE-E,803997,"MARCEL VIGNE",,47.475158,-0.582418,,,0,place_MVIGNE,,1
NARCE,424467,"LYCEE NARCE",,47.444599,-0.427490,,,0,place_NARCE,,0
NARCE-E,672229,"LYCEE NARCE",,47.444554,-0.427475,,,0,place_NARCE,,0
NDAMELAC,23915,"NOTRE DAME DU LAC",,47.479640,-0.589814,,,0,place_NDDLAC,,1
NDAMLA-E,24523,"NOTRE DAME DU LAC",,47.479713,-0.589767,,,0,place_NDDLAC,,1
NONNA-E,8443,"LES NONNAINS",,47.586766,-0.423518,,,0,place_NONNAI,,0
NONNAINS,17013,"LES NONNAINS",,47.586923,-0.423601,,,0,place_NONNAI,,0
NOUE-E,25919,"NOUELLE",,47.544871,-0.669649,,,0,place_NOUELL,,0
NOUELLE,27066,"NOUELLE",,47.544926,-0.669710,,,0,place_NOUELL,,0
NOYANT,207687,"NOYANT",,47.563367,-0.545658,,,0,place_NOYANT,,0
NOYANT-E,832846,"NOYANT",,47.563318,-0.545795,,,0,place_NOYANT,,0
NOYAU,40211,"LE NOYAU",,47.512630,-0.365560,,,0,place_NOYAU,,0
NOZAY,32625,"NOZAY",,47.487728,-0.532076,,,0,place_NOZAY,,1
NOZAY -E,837,"NOZAY",,47.487661,-0.531940,,,0,place_NOZAY,,1
OFFTOU-E,3776,"OFFICE DE TOURISME",,47.469181,-0.557585,,,0,place_OFFTOU,,1
OFFTOURI,26477,"OFFICE DE TOURISME",,47.468866,-0.558122,,,0,place_OFFTOU,,1
OLIVERAI,4722,"OLIVERAIE",,47.427215,-0.712621,,,0,place_OLIVER,,0
OLIVER-E,28837,"OLIVERAIE",,47.427336,-0.712662,,,0,place_OLIVER,,0
OREEBOIS,78210,"L'OREE DES BOIS",,47.508384,-0.378844,,,0,place_OREEBO,,0
ORGEM2-E,29706,"ORGEMONT",,47.447803,-0.542207,,,0,place_ORGEMO,,0
ORGEMONT,13154,"ORGEMONT",,47.447157,-0.542557,,,0,place_ORGEMO,,0
ORMEAU-E,18420,"ORMEAUX",,47.480040,-0.519069,,,0,place_ORMEAU,,1
ORMEAUX,17473,"ORMEAUX",,47.479954,-0.519738,,,0,place_ORMEAU,,1
P_BARD-E,153707,"BARBREAU",,47.472109,-0.591117,,,0,place_BARBRE,,1
P_CNFP-E,370303,"CNFPT",,47.471848,-0.600531,,,0,place_CNFPT,,1
P_MONG-E,260310,"MONGAZON déviation",,47.460673,-0.526921,,,0,place_MONGAZ,,1
P_ROBIN,451188,"ROBIN",,47.475611,-0.593937,,,0,place_ROBIN,,0
P_RTEBRI,7528,"ROUTE DE BRIOLLAY",,47.485584,-0.533011,,,0,place_RBRIOL,,1
PAGNOL,229552,"PAGNOL",,47.554173,-0.668690,,,0,place_PAGNOL,,0
PAGNOL-E,548981,"PAGNOL",,47.554224,-0.668527,,,0,place_PAGNOL,,0
PALLAC-E,21568,"PALLACH",,47.445941,-0.558793,,,0,place_JANPAL,,1
PALLACH,22076,"PALLACH",,47.446169,-0.558998,,,0,place_JANPAL,,1
PALLUAU,227710,"PALLUAU",,47.425504,-0.335457,,,0,place_PALLUA,,0
P-ANJO-E,32708,"PETIT ANJOU",,47.444518,-0.614611,,,0,place_PETANJ,,0
P-ANJOU,24330,"PETIT ANJOU",,47.444976,-0.615264,,,0,place_PETANJ,,0
PAPERIE,25531,"PAPERIE",,47.468722,-0.507036,,,0,place_PAPERI,,1
PAPERI-E,26837,"PAPERIE",,47.468462,-0.506527,,,0,place_PAPERI,,1
PAQUERAI,88085,"LA PAQUERAIE",,47.481187,-0.410090,,,0,place_PAQUER,,0
PAQUER-E,22063,"PAQUERETTE",,47.485962,-0.649518,,,0,place_PAQUE,,0
PAQUERET,38080,"PAQUERETTE",,47.485840,-0.649478,,,0,place_PAQUE,,0
PAQURA-E,703249,"LA PAQUERAIE",,47.481102,-0.410135,,,0,place_PAQUER,,0
PARC,2377,"RONCEVAUX",,47.486741,-0.598696,,,0,place_PARC,,0
PARCEX-E,13525,"PARC EXPO CITE DE L'OBJET CONNECTE",,47.496987,-0.493407,,,0,place_EXPO,,1
PARCEXPO,12773,"PARC EXPO CITE DE L'OBJET CONNECTE",,47.496892,-0.494157,,,0,place_EXPO,,1
PARCGA-E,16675,"GARENNE",,47.478341,-0.576503,,,0,place_GARENN,,1
PARCGARE,1681,"GARENNE",,47.478340,-0.576653,,,0,place_GARENN,,1
PARMEN-E,7606,"PARMENTIER",,47.453104,-0.518549,,,0,place_PARMEN,,0
PARMENTI,3753,"PARMENTIER",,47.453204,-0.518622,,,0,place_PARMEN,,0
PASQUEL,922466,"LA PASQUELERIE",,47.510651,-0.353188,,,0,place_PASQUE,,0
PASTEU-E,26529,"PASTEUR",,47.467113,-0.492969,,,0,place_SBPAS,,1
PASTEUR,25811,"PASTEUR",,47.466988,-0.493065,,,0,place_SBPAS,,1
PATIO,680234,"PATIO",,47.510719,-0.651796,,,0,place_PATIO,,0
PATIO-E,129375,"PATIO",,47.510819,-0.651733,,,0,place_PATIO,,0
PATIS,2076,"PATIS ST LEGER",,47.464623,-0.706898,,,0,place_PATIS,,0
PATIS-E,29802,"PATIS ST LEGER",,47.464757,-0.707047,,,0,place_PATIS,,0
PATNOIRE,31383,"PAUL BERT",,47.466318,-0.552460,,,0,place_PATINO,,1
PATTON,8271,"PATTON",,47.473342,-0.591630,,,0,place_PATTON,,0
PATTON-E,9022,"PATTON",,47.473440,-0.591641,,,0,place_PATTON,,0
PATUR-E,23972,"PATUREAUX",,47.434015,-0.527906,,,0,place_PATURO,,1
PATUREAU,20375,"PATUREAUX",,47.433815,-0.528022,,,0,place_PATURO,,1
PAUGE-E,30126,"PAUGER",,47.483216,-0.677825,,,0,place_PAUGER,,0
PAUGER,23604,"PAUGER",,47.482873,-0.678318,,,0,place_PAUGER,,0
PAVILL-E,7849,"PAVILLON",,47.465940,-0.620976,,,0,place_PAVILL,,0
PAVILLO,3922,"PAVILLON",,47.465368,-0.621756,,,0,place_PAVILL,,0
PCOUBE-E,6322,"COUBERTIN",,47.462452,-0.532314,,,0,place_PCOUBE,,0
PCOUBERT,27982,"COUBERTIN",,47.462415,-0.532468,,,0,place_PCOUBE,,0
PEGARDE,21733,"PETITE GARDE",,47.508358,-0.588143,,,0,place_PEGARD,,1
PEGARD-E,22451,"PETITE GARDE",,47.508405,-0.587936,,,0,place_PEGARD,,1
PELEGL-E,21148,"EGLISE DE PELLOUAILLES",,47.521494,-0.443926,,,0,place_PELEGL,,0
PELEGLIS,27979,"EGLISE DE PELLOUAILLES",,47.521613,-0.444059,,,0,place_PELEGL,,0
PELLEG-E,243747,"EGLISE DE PELLOUAILLES",,47.522438,-0.443502,,,0,place_PELEGL,,0
PELLER-E,13867,"PELLERINIERE",,47.460197,-0.487390,,,0,place_PELERI,,1
PELLERI,10802,"PELLERINIERE",,47.460693,-0.488233,,,0,place_PELERI,,1
PELMAI-E,29474,"MAIRIE DE PELLOUAILLES",,47.521729,-0.439407,,,0,place_PELMAI,,0
PELSTADE,26074,"STADE DE PELLOUAILLES",,47.523240,-0.438945,,,0,place_PELSTA,,0
PELSTA-E,22112,"STADE DE PELLOUAILLES",,47.523349,-0.438834,,,0,place_PELSTA,,0
PELUAU,16,"PELUAU",,47.489685,-0.567483,,,0,place_PELUAU,,1
PELUAU-E,22717,"PELUAU",,47.489426,-0.567792,,,0,place_PELUAU,,0
P-ELYS-E,189856,"ÉLYSÉE",,47.472256,-0.585115,,,0,place_ELYSEE,,1
PEPIN AR,824564,"GARE DE TRELAZE",,47.452152,-0.469599,,,0,place_GARTRE,,1
PEPINI-E,11360,"GARE DE TRELAZE",,47.452156,-0.469606,,,0,place_GARTRE,,1
PEPINIER,10185,"GARE DE TRELAZE",,47.452448,-0.470017,,,0,place_GARTRE,,1
PERAUD-E,16124,"PERRAUDIERE ZA",,47.436263,-0.700228,,,0,place_PERR36,,0
PERAUDIE,11921,"PERRAUDIERE ZA",,47.436242,-0.700040,,,0,place_PERR36,,0
PERDRIAU,4087,"PERDRIAU",,47.439734,-0.487372,,,0,place_PERDRI,,0
PERN23-C,31888,"PERRAUDIERE D 723",,47.438470,-0.698523,,,0,place_PERR23,,0
PERRAUDI,3443,"PERRAUDIERE ST LAMBERT",,47.482274,-0.681172,,,0,place_LAPERR,,0
PERRAU-E,19554,"PERRAUDIERE ST LAMBERT",,47.482390,-0.681416,,,0,place_LAPERR,,0
PERRBAUN,998251,"LA PERRAUDIERE",,47.508067,-0.346525,,,0,place_PERRBA,,0
PERRIE-E,215108,"PERRIERE",,47.463793,-0.408372,,,0,place_PERRIE,,0
PERRIERE,395213,"PERRIÈRE",,47.464766,-0.408236,,,0,place_PERRIE,,0
PERUSSAI,3238,"PERUSSAIE",,47.466084,-0.596350,,,0,place_PERUSS,,1
PERUSS-E,4185,"PERUSSAIE",,47.465529,-0.595458,,,0,place_PERUSS,,1
PETGUICH,607987,"LE PETIT GUICHARD",,47.526066,-0.479078,,,0,place_PETGUI,,0
PETGUI-E,993424,"LE PETIT GUICHARD",,47.526101,-0.478977,,,0,place_PETGUI,,0
PETIPA-E,21835,"PETITES PANNES",,47.488711,-0.569765,,,0,place_PETIPA,,1
PETIPANN,1322,"PETITES PANNES",,47.488778,-0.569979,,,0,place_PETIPA,,1
PETLANDE,11977,"PETITE LANDE",,47.550843,-0.580225,,,0,place_PETLAN,,0
PETLAN-E,13939,"PETITE LANDE",,47.554392,-0.581471,,,0,place_PETLAN,,0
PETPOR-E,6330,"PETIT PORT",,47.425732,-0.609708,,,0,place_PTPORT,,1
PETPORT,5677,"PETIT PORT",,47.425873,-0.609522,,,0,place_PTPORT,,1
PICAS,26555,"PICASSO",,47.452988,-0.523161,,,0,place_PICASO,,1
PICAS-E,43700,"PICASSO",,47.452891,-0.521960,,,0,place_PICASO,,1
PICASS-E,29141,"REPUBLIQUE TRELAZE",,47.450544,-0.505543,,,0,place_PICASS,,0
PICASSO,28488,"REPUBLIQUE TRELAZE",,47.450689,-0.505558,,,0,place_PICASS,,0
PIECE,22296,"PIECE DU MOULIN",,47.507364,-0.596622,,,0,place_PIECE,,1
PIECE-E,23406,"PIECE DU MOULIN",,47.507385,-0.596979,,,0,place_PIECE,,1
PIGEONDO,530735,"PIGEON D'OR",,47.469139,-0.389348,,,0,place_PIGEON,,0
PIGEON-E,33819,"PIGEON D'OR",,47.469058,-0.389172,,,0,place_PIGEON,,0
PIGNONIE,26672,"PIGNONIERE",,47.487289,-0.498263,,,0,place_PIGNON,,1
PIJUIG-E,98449,"PISCINE CAMILLE MUFFAT",,47.534191,-0.616522,,,0,place_PISJUI,,1
PIJUIGI,491332,"PISCINE CAMILLE MUFFAT",,47.534039,-0.616593,,,0,place_PISJUI,,1
PINEAUDI,370444,"LA PINEAUDIERE",,47.594372,-0.538185,,,0,place_PINEAU,,0
PINEAU-E,330880,"LA PINEAUDIERE",,47.594116,-0.538219,,,0,place_PINEAU,,0
PINELI-E,90368,"PINELIER",,47.523144,-0.743173,,,0,place_PINELI,,0
PINELIER,808769,"PINELIER",,47.522970,-0.743144,,,0,place_PINELI,,0
PINSON-E,24131,"PINSONS",,47.472569,-0.630313,,,0,place_PINSON,,0
PINSONS,23478,"PINSONS",,47.472499,-0.630124,,,0,place_PINSON,,0
PISANI,517316,"PISANI",,47.482962,-0.548944,,,0,place_PISANI,,0
PISCJU-E,6211,"PISCINE CAMILLE MUFFAT",,47.534191,-0.616522,,,0,place_PISJUI,,1
PISCJUIG,6185,"PISCINE CAMILLE MUFFAT",,47.534039,-0.616593,,,0,place_PISJUI,,1
PIVERD-E,31587,"PIVERDIERE",,47.437392,-0.609829,,,0,place_PIVERD,,1
PIVERDIE,30771,"PIVERDIERE",,47.437660,-0.609612,,,0,place_PIVERD,,1
PLACEN-E,19486,"PLACE NEY",,47.478569,-0.543098,,,0,place_PLACEN,,0
PLACENEY,18833,"PLACE NEY",,47.478347,-0.543534,,,0,place_PLACEN,,0
PLATEF-E,28725,"PLATEAU FLEURI",,47.529925,-0.597717,,,0,place_PLAFLE,,1
PLATFLEU,14518,"PLATEAU FLEURI",,47.529687,-0.598073,,,0,place_PLAFLE,,1
P-LBAR-E,475176,"LA BARRE",,47.472478,-0.597564,,,0,place_BARRE,,1
PLDEUR-E,30568,"PLACE DE L'EUROPE",,47.487755,-0.527171,,,0,place_EUROP5,,1
PLDULYCE,23588,"PLACE DU LYCEE",,47.466874,-0.544375,,,0,place_PLDULY,,1
PLDULY-E,29899,"PLACE DU LYCEE",,47.466909,-0.544598,,,0,place_PLDULY,,1
PLGBEL-E,386009,"BELLEVUE PLESSIS GRAMMOIRE",,47.504687,-0.440328,,,0,place_BELPLE,,0
PLGBELVU,340050,"BELLEVUE PLESSIS GRAMMOIRE",,47.504810,-0.440297,,,0,place_BELPLE,,0
PLGRAM-E,913474,"MAIRIE DU PLESSIS GRAMMOIRE",,47.501660,-0.430595,,,0,place_PLGRAM,,0
PLGRAMMO,17275,"MAIRIE DU PLESSIS GRAMMOIRE",,47.500975,-0.431636,,,0,place_PLGRAM,,0
PLMACE,32166,"MAIRIE DU PLESSIS MACE",,47.543828,-0.675138,,,0,place_PLEMAC,,0
PLMACE-E,17244,"MAIRIE DU PLESSIS MACE",,47.544088,-0.674758,,,0,place_PLEMAC,,0
PLOTIN-E,626210,"PLOTINIERE",,47.472141,-0.433089,,,0,place_PLOTIN,,0
PLOTINIE,32677,"PLOTINIERE",,47.472288,-0.433233,,,0,place_PLOTIN,,0
PLOTTI-E,90896,"PLOTTIERE",,47.522402,-0.610725,,,0,place_PLOTTI,,1
PLOTTIER,317864,"PLOTTIERE",,47.522342,-0.610902,,,0,place_PLOTTI,,1
P-MTSQ-E,673481,"MONTESQUIEU",,47.473471,-0.579703,,,0,place_MONTES,,1
POINCA-E,19244,"POINCARE",,47.500257,-0.589665,,,0,place_POINCA,,1
POINCARE,17808,"POINCARE",,47.499849,-0.589499,,,0,place_POINCA,,1
POIREL,14957,"POIREL",,47.461703,-0.562118,,,0,place_POIREL,,1
POIREL-E,5240,"POIREL",,47.461522,-0.562113,,,0,place_POIREL,,1
POISSO-E,16364,"COEUR DE MAINE",,47.472569,-0.556829,,,0,place_POISSO,,1
POISSONN,29689,"COEUR DE MAINE",,47.472316,-0.557167,,,0,place_POISSO,,1
POIVRE,690308,"POIVRE",,47.513532,-0.593046,,,0,place_POIVRE,,1
POIVRE-E,17887,"POIVRE",,47.513557,-0.593131,,,0,place_POIVRE,,1
POLE49,573557,"POLE 49",,47.489000,-0.491226,,,0,place_POLE49,,1
POLIGU-E,85187,"POLIGUET",,47.494567,-0.397164,,,0,place_POLIG,,0
POLIGUET,527584,"POLIGUET",,47.494498,-0.397273,,,0,place_POLIG,,0
POMANJ-E,19679,"POMANJOU",,47.500202,-0.520708,,,0,place_POMANJ,,0
POMANJO,18732,"POMANJOU",,47.500232,-0.520851,,,0,place_POMANJ,,0
POMONE,14481,"POMONE",,47.481356,-0.574590,,,0,place_POMONE,,1
POMONE-E,15036,"POMONE",,47.481516,-0.574384,,,0,place_POMONE,,1
PONTLA-E,16421,"PONT LAITIER",,47.413199,-0.617199,,,0,place_PONTLA,,1
PONTLAIT,15506,"PONT LAITIER",,47.413158,-0.617090,,,0,place_PONTLA,,1
PONTNO-E,4391,"PONT NOIR",,47.464022,-0.562619,,,0,place_PONTNO,,1
PONTNOIR,14304,"PONT NOIR",,47.463840,-0.562893,,,0,place_PONTNO,,1
PONTSC-E,15414,"MAIRIE DES PONTS DE CE",,47.425495,-0.525811,,,0,place_PONTSC,,1
PONTSCEM,14271,"MAIRIE DES PONTS DE CE",,47.425251,-0.525237,,,0,place_PONTSC,,1
PORTSG,30148,"LE PORT",,47.421506,-0.573614,,,0,place_LEPORT,,0
PORTSG-E,9108,"LE PORT",,47.421563,-0.573992,,,0,place_LEPORT,,0
POUIL AR,3580,"POUILLE",,47.432865,-0.532186,,,0,place_POUILL,,1
POUILLE,25650,"POUILLE",,47.432768,-0.531752,,,0,place_POUILL,,1
P-PATT-E,135067,"PATTON",,47.472197,-0.593451,,,0,place_PATTON,,1
PREVERT,646592,"PREVERT",,47.487774,-0.597530,,,0,place_PREVER,,0
PRIEURE,18873,"PRIEURE",,47.471893,-0.633646,,,0,place_PRIEUR,,1
PRIEUR-E,19657,"PRIEURE",,47.471869,-0.633574,,,0,place_PRIEUR,,1
PRINCE,31844,"PRINCE",,47.389523,-0.525723,,,0,place_PRINCE,,0
PRINCE-E,25212,"PRINCE",,47.389561,-0.525887,,,0,place_PRINCE,,0
PROME-E,27692,"PROMENIERS",,47.477386,-0.631355,,,0,place_PROMEN,,1
PROMENIE,26386,"PROMENIERS",,47.477310,-0.631391,,,0,place_PROMEN,,1
PROUD-E,6151,"PROUDHON",,47.461394,-0.603236,,,0,place_PROUDH,,0
PROUDH-E,30177,"PROUDHON",,47.461657,-0.603411,,,0,place_PROUDH,,1
PROUDHON,29327,"PROUDHON",,47.461204,-0.603844,,,0,place_PROUDH,,1
PROVIN-E,17083,"PROVINS",,47.492562,-0.502045,,,0,place_PROVIN,,1
PROVINS,14341,"PROVINS",,47.492528,-0.502422,,,0,place_PROVIN,,1
PRTLAU-E,4444,"PORT LAUNAY",,47.520920,-0.521626,,,0,place_LAUNAY,,0
PRTLAUNA,20548,"PORT LAUNAY",,47.520718,-0.521638,,,0,place_LAUNAY,,0
PRUILL,642291,"PRUILLE",,47.577165,-0.662793,,,0,place_PRUILL,,0
PRUILLE,817682,"PLACE DE LA FONTAINE",,47.577225,-0.662873,,,0,place_PRU_IR,,1
PRUILL-E,430244,"PRUILLE",,47.577058,-0.662755,,,0,place_PRUILL,,0
PRUNIE-E,27721,"PRUNIERS",,47.449315,-0.602529,,,0,place_PRUNIE,,1
PRUNIERS,43576,"PRUNIERS",,47.449060,-0.602696,,,0,place_PRUNIE,,1
PTANJO-E,7177,"CROISEE",,47.459078,-0.667484,,,0,place_CROISE,,0
PTANJOU,24470,"CROISEE",,47.458892,-0.668172,,,0,place_CROISE,,0
PTASSI-E,17550,"POLE TASSIGNY",,47.446472,-0.537415,,,0,place_PTASSI,,1
PTELANDE,671903,"LA PETITE LANDE",,47.451239,-0.431977,,,0,place_LAPETI,,0
PTFILL-E,19116,"PONT AUX FILLES",,47.512662,-0.515057,,,0,place_PTFILL,,0
PTFILLES,1435,"PONT AUX FILLES",,47.512010,-0.515024,,,0,place_PTFILL,,0
PTGRCHAM,12601,"PETITS GRANDCHAMPS",,47.463898,-0.714390,,,0,place_PETGRA,,0
PTGRCH-E,24018,"PETITS GRANDCHAMPS",,47.464034,-0.714341,,,0,place_PETGRA,,0
PTJOUR,18366,"POINT DU JOUR",,47.474264,-0.319784,,,0,place_PTJOUR,,0
PTMONGAZ,27077,"PETIT MONGAZON",,47.486943,-0.483302,,,0,place_PTMONG,,0
PTMONG-E,6242,"PETIT MONGAZON",,47.486715,-0.483341,,,0,place_PTMONG,,0
P-VDMA-E,246495,"VAL DE MAINE",,47.443071,-0.612935,,,0,place_VALDEM,,1
PYRA10-E,31499,"PYRAMIDE",,47.440078,-0.488733,,,0,place_PYRAMI,,0
PYRAM02,23017,"PYRAMIDE",,47.440880,-0.488639,,,0,place_PYRAM2,,1
PYRAM10,1573,"PYRAMIDE",,47.440986,-0.490185,,,0,place_PYRAMI,,0
PYRAM2-E,46871,"PYRAMIDE",,47.440815,-0.488518,,,0,place_PYRAM2,,1
QUANTI-E,83420,"QUANTINIERE",,47.455323,-0.471574,,,0,place_QUANTI,,1
QUANTIN,17853,"QUANTINIERE",,47.455106,-0.471666,,,0,place_QUANTI,,1
QVENTS,4688,"QUATRE VENTS",,47.497151,-0.420747,,,0,place_QUATRE,,0
QVENTS-E,15898,"QUATRE VENTS",,47.497096,-0.420865,,,0,place_QUATRE,,0
RABELA-E,28844,"RABELAIS",,47.461596,-0.546957,,,0,place_RABELA,,1
RABELAI,819,"RABELAIS",,47.461750,-0.546890,,,0,place_RABELA,,1
RAINIERE,476568,"RAINIERE",,47.578677,-0.476915,,,0,place_RAINIE,,0
RALL52-E,25929,"RALLIEMENT",,47.471430,-0.551835,,,0,place_RALLIE,,1
RALL-A,435252,"RALLIEMENT",,47.471448,-0.551832,,,0,place_RALLIE,,1
RALL-R,897236,"RALLIEMENT",,47.471369,-0.551915,,,0,place_RALLIE,,1
RAMON,25600,"RAMON",,47.486669,-0.537883,,,0,place_RAMON,,1
RAMON -E,7452,"RAMON",,47.486515,-0.538044,,,0,place_RAMON,,1
RANGEA-E,28686,"RANGEARDIERE",,47.410148,-0.622802,,,0,place_RANGEA,,1
RANGEARD,11014,"RANGEARDIERE",,47.410112,-0.622905,,,0,place_RANGEA,,1
RAPIDE-E,22324,"RAPIDEX",,47.502692,-0.513959,,,0,place_RAPIDE,,0
RAPIDEX,21736,"RAPIDEX",,47.502756,-0.514089,,,0,place_RAPIDE,,0
RASPAI-E,14912,"RASPAIL",,47.475037,-0.570094,,,0,place_RASPAI,,0
RASPAIL,3803,"RASPAIL",,47.474927,-0.570096,,,0,place_RASPAI,,0
RBRIOL-E,8269,"ROUTE DE BRIOLLAY",,47.486155,-0.532860,,,0,place_RBRIOL,,1
RBRIOLLA,24653,"ROUTE DE BRIOLLAY",,47.486404,-0.532884,,,0,place_RBRIOL,,1
RECLAI-E,641741,"RENE CLAIR",,47.536595,-0.621794,,,0,place_RECLAI,,1
RECLAIR,461517,"RENE CLAIR",,47.536699,-0.621849,,,0,place_RECLAI,,1
RENARD,27566,"RENARDIERE",,47.483846,-0.674031,,,0,place_RENARD,,0
RENAR-E,19748,"RENARDIERE",,47.483725,-0.674466,,,0,place_RENARD,,0
RENOIR,26525,"AUGUSTE RENOIR",,47.536082,-0.618577,,,0,place_RENOIR,,1
RENOIR-E,478423,"AUGUSTE RENOIR",,47.535998,-0.618425,,,0,place_RENOIR,,1
RENOU,6625,"RENOU",,47.436923,-0.486762,,,0,place_RENOU,,0
RENOU-E,4188,"RENOU",,47.437339,-0.486928,,,0,place_RENOU,,0
REPMON-E,31175,"REPUBLIQUE MONTREUIL",,47.528952,-0.610978,,,0,place_MONREP,,1
REPTRE-E,25507,"REPUBLIQUE TRELAZE",,47.450161,-0.504077,,,0,place_PICASS,,1
REPTRELA,9180,"REPUBLIQUE TRELAZE",,47.450145,-0.504357,,,0,place_PICASS,,1
REPUBL-E,6777,"REPUBLIQUE",,47.471694,-0.553859,,,0,place_RAMEAU,,1
REPUBLIQ,30691,"REPUBLIQUE",,47.471006,-0.553993,,,0,place_RAMEAU,,1
RESIDE-E,209683,"RESIDENCE",,47.572736,-0.486969,,,0,place_RESID,,0
RESIDENC,125095,"RESIDENCE",,47.572844,-0.486989,,,0,place_RESID,,0
RESTLA-E,428093,"RESTAURANT JEANNE DE LAVAL",,47.456854,-0.393803,,,0,place_ANREST,,0
RESTLAVA,675479,"RESTAURANT JEANNE DE LAVAL",,47.456977,-0.393840,,,0,place_ANREST,,0
RESTUN-E,28833,"RESTAU U",,47.479546,-0.600358,,,0,place_RESTAU,,1
RESTUNIV,27148,"RESTAU U",,47.479178,-0.600198,,,0,place_RESTAU,,1
REUSSI-E,366153,"REUSSIERES",,47.569300,-0.564308,,,0,place_REUSSI,,0
REUSSIER,434069,"REUSSIERES",,47.569408,-0.564321,,,0,place_REUSSI,,0
REVERI-E,13109,"REVERIES",,47.482106,-0.577855,,,0,place_REVERI,,1
REVERIES,12326,"REVERIES",,47.482005,-0.578452,,,0,place_REVERI,,1
RGILARDI,390494,"ROUTE DES GILARDIERES",,47.385927,-0.564687,,,0,place_GILARD,,0
RIDER,410494,"RIDEREAU",,47.477953,-0.391250,,,0,place_RIDERE,,1
RIDEREAU,567791,"RIDEREAU",,47.477925,-0.391209,,,0,place_RIDERE,,0
RIDERE-E,917645,"RIDEREAU",,47.478021,-0.391163,,,0,place_RIDERE,,0
RIMOUX,716161,"RIMOUX",,47.475803,-0.356206,,,0,place_RIMOUX,,0
RIMOUX-E,644943,"RIMOUX",,47.475743,-0.356174,,,0,place_RIMOUX,,0
RIOTTEAU,29013,"RIOTTEAU",,47.443933,-0.498789,,,0,place_RIOTTE,,0
RIOTTE-E,6695,"RIOTTEAU",,47.443830,-0.498719,,,0,place_RIOTTE,,0
RIPOLE-E,5826,"RIPOLLET",,47.511172,-0.588369,,,0,place_RIPOLE,,1
RIPOLLE,22179,"RIPOLLET",,47.510907,-0.588810,,,0,place_RIPOLE,,1
RIVET,5205,"RIVET",,47.436827,-0.516359,,,0,place_PERRIN,,1
RIVET-E,5331,"RIVET",,47.436684,-0.515915,,,0,place_PERRIN,,1
RMOINE-E,32116,"ROCHE AUX MOINES",,47.393890,-0.645907,,,0,place_RMOINE,,0
RMOINES,6489,"ROCHE AUX MOINES",,47.393847,-0.645740,,,0,place_RMOINE,,0
ROCEPI-E,17525,"ROC EPINE",,47.480265,-0.575807,,,0,place_ROCEPI,,1
ROCEPINE,636,"ROC EPINE",,47.480326,-0.575926,,,0,place_ROCEPI,,1
ROCHE-E,20309,"LA ROCHETTE",,47.528737,-0.751186,,,0,place_ROCHET,,0
ROCHEF-E,13000,"LA ROCHEFOUCAULD",,47.479428,-0.556732,,,0,place_ROCHE,,1
ROCHEFOU,6793,"LA ROCHEFOUCAULD",,47.478851,-0.556972,,,0,place_ROCHE,,1
ROCHETTE,22371,"LA ROCHETTE",,47.528593,-0.751085,,,0,place_ROCHET,,0
ROCHMA-E,370620,"ROCHE MAROTTE",,47.447371,-0.519286,,,0,place_ROCHM,,0
ROCHMAR,573094,"ROCHE MAROTTE",,47.447421,-0.519173,,,0,place_ROCHM,,0
RODIN,12656,"RODIN",,47.475959,-0.625691,,,0,place_RODIN,,1
RODIN -E,13309,"RODIN",,47.476066,-0.625726,,,0,place_RODIN,,1
ROFOUL-E,627992,"LA ROCHE FOULQUES",,47.575918,-0.455365,,,0,place_FOULQU,,0
ROFOULQ,55701,"LA ROCHE FOULQUES",,47.575868,-0.454769,,,0,place_FOULQU,,0
ROIPOLO,883602,"ROI DE POLOGNE",,47.469514,-0.561260,,,0,place_ROIPOL,,0
ROMA-AD,28445,"SAINTE GEMMES - ROCHE MORNA",,47.420236,-0.581478,,,0,place_SGEMME,,0
ROMAB-E,78271,"ROMANERIE",,47.484501,-0.508052,,,0,place_ROMANE,,0
ROMABLD,84626,"ROMANERIE",,47.484599,-0.507795,,,0,place_ROMANE,,0
ROMOR AR,17830,"SAINTE GEMMES - ROCHE MORNA",,47.420323,-0.581443,,,0,place_SGEMME,,1
ROMORNA,32360,"SAINTE GEMMES - ROCHE MORNA",,47.420324,-0.581400,,,0,place_SGEMME,,1
RONCERAY,10261,"RONCERAY",,47.529591,-0.564901,,,0,place_RONCER,,0
RONCER-E,20665,"RONCERAY",,47.530018,-0.565314,,,0,place_RONCER,,0
RONCIE-E,17649,"RONCIERES",,47.436056,-0.513728,,,0,place_RONCIE,,1
RONCIERE,3607,"RONCIERES",,47.435943,-0.513476,,,0,place_RONCIE,,1
ROUAIR-E,20788,"ROUAIRIE",,47.475664,-0.639018,,,0,place_ROUAIR,,1
ROUAIRIE,19971,"ROUAIRIE",,47.475690,-0.638920,,,0,place_ROUAIR,,1
ROUSSI-E,228030,"LA ROUSSIERE",,47.574653,-0.650834,,,0,place_ROUSS,,0
ROUSSIER,4742,"LA ROUSSIERE",,47.574652,-0.650673,,,0,place_ROUSS,,0
ROUTE4-E,4312,"ROUTE N 4",,47.441573,-0.492395,,,0,place_RTEN4,,0
ROUTEN 4,15621,"ROUTE N 4",,47.441809,-0.492663,,,0,place_RTEN4,,0
RTECHA-E,31093,"ROUTE DE CHAMPIGNE",,47.572340,-0.593312,,,0,place_RTECHA,,0
RTECHAMP,31470,"ROUTE DE CHAMPIGNE",,47.572262,-0.593460,,,0,place_RTECHA,,0
RTEDAN-E,14532,"ROUTE D'ANGERS",,47.425440,-0.556239,,,0,place_RTEDAN,,1
RTEDANGE,6743,"ROUTE D'ANGERS",,47.425501,-0.556521,,,0,place_RTEDAN,,1
RTEHAUCH,827510,"ROUTE DES HAUTES CHAPELLES",,47.476167,-0.381858,,,0,place_RTEHAU,,0
RTEHAU-E,427868,"ROUTE DES HAUTES CHAPELLES",,47.476088,-0.381921,,,0,place_RTEHAU,,0
RTEMEI-E,19122,"ROUTE DE LA MEIGNANNE",,47.477784,-0.639501,,,0,place_RTEMEI,,1
RTEMEIGN,18306,"ROUTE DE LA MEIGNANNE",,47.477719,-0.639482,,,0,place_RTEMEI,,1
RTEPAR-E,19337,"ROUTE DE PARIS",,47.489743,-0.507372,,,0,place_RTPARI,,1
RTEPARIS,17574,"ROUTE DE PARIS",,47.489597,-0.508103,,,0,place_RTPARI,,1
RTEROU-E,538444,"ROUTE DE LA ROUSSIERE",,47.571875,-0.650128,,,0,place_ROUSSI,,0
RTEROUSS,50541,"ROUTE DE LA ROUSSIERE",,47.571888,-0.649932,,,0,place_ROUSSI,,0
RTIERCE,409258,"ROUTE DE TIERCE",,47.584150,-0.496837,,,0,place_RTETIE,,0
RTINARD,9553,"ROCHE TINARD",,47.496413,-0.403720,,,0,place_ROCHTI,,0
RTINAR-E,273,"ROCHE TINARD",,47.496023,-0.401488,,,0,place_ROCHTI,,0
RTSORG-E,793058,"ROUTE DE SORGES",,47.432648,-0.490873,,,0,place_RTESOR,,0
RTSORGES,228228,"ROUTE DE SORGES",,47.432548,-0.490878,,,0,place_RTESOR,,0
RUAU,279260,"LE RUAU",,47.424320,-0.398701,,,0,place_RUAU,,0
RUAU-E,343146,"LE RUAU",,47.424247,-0.398617,,,0,place_RUAU,,0
RUCOURTE,224549,"RUE COURTE",,47.419680,-0.328780,,,0,place_RUCOUR,,0
RUELLE-E,27445,"RUELLES",,47.437339,-0.531554,,,0,place_RUELLE,,1
RUELLES,26825,"RUELLES",,47.437666,-0.531441,,,0,place_RUELLE,,1
SABLE-E,19865,"LA SABLE",,47.587048,-0.590393,,,0,place_SABLE,,0
SABLON-E,28751,"SABLONS",,47.439789,-0.533333,,,0,place_SABLON,,1
SABLONS,28098,"SABLONS",,47.440038,-0.533133,,,0,place_SABLON,,1
SAECOE-E,487713,"ECOLE PRIMAIRE PUBLIQUE SAVENNIERES",,47.383342,-0.655836,,,0,place_SAVELE,,0
SAECOELE,895663,"ECOLE PRIMAIRE PUBLIQUE SAVENNIERES",,47.383342,-0.655836,,,0,place_SAVELE,,0
SAECOMAT,271580,"ECOLE MATERNELLE SAVENNIERES",,47.383115,-0.659629,,,0,place_SAVMAT,,0
SAECOPRI,591978,"ECOLE PRIMAIRE PRIVEE SAVENNIERES",,47.384668,-0.659300,,,0,place_SAVECO,,0
SAICRO-E,20081,"SAINTE CROIX",,47.469864,-0.554963,,,0,place_SAINCR,,1
SAICROIX,18938,"SAINTE CROIX",,47.469957,-0.554321,,,0,place_SAINCR,,1
SAILLE-E,29523,"SAILLERIE",,47.486530,-0.506792,,,0,place_SAILLE,,0
SAJACQ-E,10642,"SAINT JACQUES",,47.473726,-0.572616,,,0,place_STJACQ,,1
SAJACQUE,17939,"SAINT JACQUES",,47.473585,-0.571230,,,0,place_STJACQ,,1
SALET AR,20518,"SALETTE",,47.512493,-0.587165,,,0,place_SALETT,,1
SALETT-E,613884,"SALETTE",,47.512630,-0.586802,,,0,place_SALETT,,1
SARRCI-E,11756,"CIMETIERE DE SARRIGNE",,47.501496,-0.388022,,,0,place_CIMSAR,,0
SARRCIME,1249,"CIMETIERE DE SARRIGNE",,47.501537,-0.387406,,,0,place_CIMSAR,,0
SARRENAR,980819,"RENARDIERES SARRIGNÉ",,47.493388,-0.389135,,,0,place_RENSAR,,0
SARREN-E,115755,"RENARDIÈRES SARRIGNÉ",,47.493482,-0.389148,,,0,place_RENSAR,,0
SARRIDEP,398822,"SARRIGNE LES PLANTES",,47.502404,-0.379272,,,0,place_SARRIG,,0
SARRIG-E,9431,"LES PLANTES",,47.502406,-0.379316,,,0,place_SARRIG,,0
SARRIGNE,31023,"LES PLANTES",,47.502718,-0.378968,,,0,place_SARRIG,,0
SARRMA-E,23555,"MAIRIE DE SARRIGNE",,47.501677,-0.383139,,,0,place_SARMAI,,0
SARRMAIR,30431,"MAIRIE DE SARRIGNE",,47.501762,-0.383259,,,0,place_SARMAI,,0
SAULA-E,997892,"LA SAULAIE",,47.528968,-0.487747,,,0,place_LASAUL,,0
SAULAIE,530410,"LA SAULAIE",,47.528964,-0.487870,,,0,place_LASAUL,,0
SAULAI-E,679503,"SAULAIS",,47.470160,-0.461785,,,0,place_SAULAI,,0
SAULAIS,425213,"SAULAIS",,47.470308,-0.461632,,,0,place_SAULAI,,0
SAVARY,20832,"SAVARY",,47.473540,-0.542736,,,0,place_SAVARY,,1
SAVARY-E,22138,"SAVARY",,47.473470,-0.541324,,,0,place_SAVARY,,1
SAVENN-E,989607,"SAVENNIÈRES MAIL",,47.383363,-0.655792,,,0,place_SAVENN,,0
SAVENNIE,25242,"SAVENNIERES MAIL",,47.383363,-0.655792,,,0,place_SAVENN,,0
SAVGARE,79863,"GARE DE SAVENNIERES",,47.381179,-0.655634,,,0,place_SAVGAR,,0
SAVGAR-E,282280,"SAVENNIÈRES GARE",,47.381179,-0.655634,,,0,place_SAVGAR,,0
SBART AR,16109,"SAINT BARTHELEMY",,47.472615,-0.485871,,,0,place_SBARTH,,0
SBARTHEL,11134,"SAINT BARTHELEMY",,47.472615,-0.485871,,,0,place_SBARTH,,1
SCAMURS,775738,"SCANIA MURS ERIGNE",,47.383757,-0.549026,,,0,place_SCAMUR,,0
SCANIA,13638,"SCANIA",,47.493116,-0.522351,,,0,place_SCANIA,,0
SCANIA-E,14160,"SCANIA",,47.493612,-0.522226,,,0,place_SCANIA,,0
SCHWALBA,31127,"SCHWALBACH",,47.503777,-0.602320,,,0,place_SCHWAL,,1
SCHWAL-E,32531,"SCHWALBACH",,47.504045,-0.602507,,,0,place_SCHWAL,,1
SCHWE,32302,"SCHWEITZER",,47.482622,-0.522264,,,0,place_SCHWEI,,0
SCHWEI..,14896,"SCHWEITZER",,47.482622,-0.522264,,,0,place_SCHWEI,,0
SCHWEITZ,6816,"MIMOSAS",,47.481576,-0.523443,,,0,place_SCHWZ,,1
SCHWTZ-E,8671,"MIMOSAS",,47.481552,-0.523192,,,0,place_SCHWZ,,1
SECUSOCI,26877,"SECURITE SOCIALE",,47.469120,-0.540188,,,0,place_SECUSO,,1
SECUSO-E,14711,"SECURITE SOCIALE",,47.468992,-0.540100,,,0,place_SECUSO,,1
SEMARD,27110,"GARES SEMARD",,47.464615,-0.560139,,,0,place_GARE,,1
SEPSON-E,26591,"7 SONNETTES",,47.485737,-0.515147,,,0,place_SEPSON,,1
SEPSONET,12415,"7 SONNETTES",,47.486085,-0.514785,,,0,place_SEPSON,,1
SEURAT,8147,"CENTRE COMMERCIAL MOLLIERE",,47.460866,-0.617180,,,0,place_SEURAT,,1
SEURAT-E,30002,"CENTRE COMMERCIAL MOLLIERE",,47.460777,-0.617481,,,0,place_SEURAT,,1
SHEAKS-E,14745,"SHAKESPEARE",,47.461973,-0.612620,,,0,place_SHAKES,,1
SHEAKSPE,15855,"SHAKESPEARE",,47.461877,-0.612597,,,0,place_SHAKES,,1
SLEZIND,16655,"TRELAZE SAINT LEZIN",,47.450358,-0.488225,,,0,place_SLEZIN,,0
SLEZIN-E,13324,"TRELAZE SAINT LEZIN",,47.450351,-0.488281,,,0,place_SLEZIN,,0
SMATGD-E,737761,"GRANDE RUE",,47.411040,-0.333323,,,0,place_SMARUE,,0
SMATGDRU,735252,"GRANDE RUE",,47.411125,-0.333079,,,0,place_SMARUE,,0
SMATOF-E,634987,"MAIRIE ST MATHURIN SUR LOIRE",,47.409472,-0.322294,,,0,place_SMATHU,,0
SMATOFTO,299329,"MAIRIE ST MATHURIN SUR LOIRE",,47.409661,-0.321564,,,0,place_SMATHU,,0
SOECPR-E,824288,"ECOLE PRIVEE SOUCELLES",,47.568286,-0.419282,,,0,place_ECOSOU,,0
SOECPRIV,973131,"ECOLE PRIMAIRE PRIVEE SOUCELLES",,47.568286,-0.419282,,,0,place_ECOSOU,,0
SOECPUBL,99939,"ECOLE PRIMAIRE PUBLIQUE SOUCELLES",,47.571219,-0.421095,,,0,place_ECOSOU,,0
SOECPU-E,906211,"ECOLE PUBLIQUE SOUCELLES",,47.571217,-0.421122,,,0,place_ECOSOU,,0
SOLAND,31835,"SOLAND",,47.399479,-0.531273,,,0,place_SOLAND,,1
SOLAND-E,32488,"SOLAND",,47.399582,-0.530468,,,0,place_SOLAND,,1
SOLELE-E,26456,"SOLEIL LEVANT",,47.484894,-0.516754,,,0,place_SOLELE,,1
SOLELEVA,25379,"SOLEIL LEVANT",,47.484629,-0.517592,,,0,place_SOLELE,,1
SORGES,27536,"SORGES",,47.431870,-0.485221,,,0,place_SORGES,,0
SORGES-E,729639,"SORGES",,47.431866,-0.485235,,,0,place_SORGES,,0
SOUCEL-E,19812,"SOUCELLES",,47.570167,-0.420300,,,0,place_SOUCEL,,0
SOUCELLE,1423,"SOUCELLES",,47.569446,-0.420554,,,0,place_SOUCEL,,0
SOUCMA-E,465285,"SOUCELLES MAIRIE",,47.568120,-0.419125,,,0,place_SOUMAI,,0
SOUCMAIR,431117,"SOUCELLES MAIRIE",,47.568120,-0.419125,,,0,place_SOUMAI,,0
SOULAI-E,39480,"LE TERTRE SOULAINES",,47.362724,-0.522774,,,0,place_SOULAI,,0
SOULAINE,1828,"LE TERTRE SOULAINES",,47.362895,-0.522665,,,0,place_SOULAI,,0
SOULAIR,5421,"SOULAIRE",,47.577327,-0.554304,,,0,place_SOULBG,,0
SOULBEAU,584958,"BEAUREPAIRE SOULAIRE",,47.556439,-0.555575,,,0,place_SOUBEA,,0
SOULBE-E,779714,"BEAUREPAIRE SOULAIRE",,47.556521,-0.555631,,,0,place_SOUBEA,,0
SOULCHAP,85435,"LES CHAPELLES",,47.577036,-0.544685,,,0,place_CHASOU,,0
SOULCH-E,403251,"LES CHAPELLES",,47.577048,-0.544819,,,0,place_CHASOU,,0
SOUL-E,22770,"SOULAIRE",,47.577519,-0.554125,,,0,place_SOULBG,,0
SOULEC-E,503218,"ECOLE DE SOULAINES",,47.365765,-0.521276,,,0,place_SOUECO,,0
SOULECOL,51293,"ECOLE DE SOULAINES",,47.365870,-0.521555,,,0,place_SOUECO,,0
SOUSTADE,179678,"SOUCELLES STADE",,47.570224,-0.422138,,,0,place_SOUSTA,,0
SOUSTA-E,916505,"SOUCELLES STADE",,47.570020,-0.421902,,,0,place_SOUSTA,,0
SOUZE-E,13244,"PETITE SOUZELLE",,47.549681,-0.563840,,,0,place_SOUZEL,,0
SOUZELL,11009,"PETITE SOUZELLE",,47.549137,-0.564462,,,0,place_SOUZEL,,0
SPORBR-E,27038,"SALLE DE SPORT",,47.561705,-0.505089,,,0,place_BRSPOR,,0
SPORBRIO,8372,"SALLE DE SPORT",,47.561626,-0.505177,,,0,place_BRSPOR,,0
SPOT,458426,"GERMAINE TILLION",,47.537072,-0.627455,,,0,place_SPOT,,1
SPOT-E,914780,"GERMAINE TILLION",,47.536742,-0.627917,,,0,place_SPOT,,1
STADE,11605,"STADE DE SAINT BARTHELEMY",,47.461333,-0.492110,,,0,place_STADES,,1
STADE-E,12422,"STADE DE SAINT BARTHELEMY",,47.461241,-0.491890,,,0,place_STADES,,1
STAUBI-E,31700,"FOCH SAINT AUBIN",,47.468146,-0.551044,,,0,place_STAUHO,,1
STAUBIN,22468,"FOCH SAINT AUBIN",,47.468556,-0.550032,,,0,place_STAUHO,,1
STCHAR-E,913352,"COLLEGE ST CHARLES",,47.475632,-0.566942,,,0,place_STCHAR,,1
STCHARLE,146807,"COLLEGE ST CHARLES",,47.475640,-0.566938,,,0,place_STCHAR,,1
STEMAR-E,11224,"JOSEPH WRESINSKI",,47.484114,-0.559306,,,0,place_STEMAR,,1
STEMARI,3210,"JOSEPH WRESINSKI",,47.484577,-0.559243,,,0,place_STEMAR,,0
STEMELAI,787343,"SAINT MELAINE",,47.370466,-0.496650,,,0,place_STEMEL,,0
STEMEL-E,576181,"SAINT MELAINE",,47.370358,-0.496620,,,0,place_STEMEL,,1
STEXUP-E,15821,"SAINT EXUPERY",,47.468021,-0.537403,,,0,place_STEXUP,,1
STEXUPER,22347,"SAINT EXUPERY",,47.467847,-0.536517,,,0,place_STEXUP,,1
STGILL-E,30071,"SAINT GILLES PLESSIS GRAMMOIRE",,47.495017,-0.431831,,,0,place_STGILL,,0
STGILLES,17692,"SAINT GILLES PLESSIS GRAMMOIRE",,47.495169,-0.432124,,,0,place_STGILL,,0
STJOS-E,14109,"SAINT JOSEPH",,47.464782,-0.541133,,,0,place_STJOSE,,1
STJOSEP,23613,"SAINT JOSEPH",,47.464913,-0.541245,,,0,place_STJOSE,,1
STLAUD,248626,"COLLEGE SAINT LAUD",,47.418504,-0.522770,,,0,place_STLAUD,,0
STLAUD-E,721584,"COLLEGE SAINT LAUD",,47.418563,-0.522832,,,0,place_STLAUD,,0
STLAURE,12804,"STADE RAYMOND KOPA",,47.461354,-0.531137,,,0,place_RAYKOP,,1
STLEGMAI,301813,"MAIRIE DE SAINT LEGER DES BOIS",,47.459096,-0.709886,,,0,place_STLEGE,,0
STLEGM-E,719471,"MAIRIE DE SAINT LEGER DES BOIS",,47.459138,-0.710053,,,0,place_STLEGE,,0
STLEMO-E,891148,"SAINT LÉGER MOULIN",,47.461569,-0.708066,,,0,place_STLEMO,,0
STLEMOUL,206131,"SAINT LÉGER MOULIN",,47.461538,-0.707913,,,0,place_STLEMO,,0
STLEOB-E,6958,"SAINT LEONARD",,47.459544,-0.521971,,,0,place_STLEON,,1
STLEONA.,7908,"SAINT LEONARD",,47.459770,-0.521071,,,0,place_STLEON,,1
STLEONCB,11495,"SAINT LEONARD",,47.459632,-0.522057,,,0,place_STLEON,,1
STLEON-E,7367,"SAINT LEONARD",,47.459772,-0.520856,,,0,place_STLEON,,1
STLOU-E,35907,"SAINT LOUIS",,47.487771,-0.586632,,,0,place_STLOUI,,0
STLOUIS,16220,"SAINT LOUIS",,47.487528,-0.586621,,,0,place_STLOUI,,0
STMANS,10056,"BANCHAIS",,47.485819,-0.512468,,,0,place_STMANS,,1
STMANS-E,8978,"BANCHAIS",,47.485481,-0.510533,,,0,place_STMANS,,0
STMART-E,1531,"BOURG DE SAINT MARTIN",,47.431407,-0.703074,,,0,place_STMABO,,0
STMARTIN,16698,"BOURG DE SAINT MARTIN",,47.431214,-0.703544,,,0,place_STMABO,,0
STRAS2,24345,"STRASBOURG",,47.457304,-0.554546,,,0,place_STRASB,,1
STRAS2-E,23061,"STRASBOURG",,47.457138,-0.554322,,,0,place_STRASB,,1
STSMAI-E,753560,"MAIRIE DE SAINT SYLVAIN",,47.519855,-0.470723,,,0,place_STSMAI,,1
STSMAIR,833473,"MAIRIE DE SAINT SYLVAIN",,47.519887,-0.470705,,,0,place_STSMAI,,1
STSYCH-A,701827,"SAINT SYLVAIN",,47.525157,-0.460813,,,0,place_GAUGUI,,1
STSYCHVE,74046,"SAINT SYLVAIN",,47.525157,-0.460813,,,0,place_GAUGUI,,1
STSYL-AR,397,"CARREAUX",,47.512716,-0.471042,,,0,place_CARREA,,0
STSYLVAI,32055,"CARREAUX",,47.512736,-0.470738,,,0,place_CARREA,,1
STTERESE,2068,"SAINTE THERESE",,47.480857,-0.564329,,,0,place_STTHER,,1
STTHER-E,7404,"SAINTE THERESE",,47.480599,-0.564220,,,0,place_STTHER,,1
TALET,364496,"TALET",,47.476405,-0.547674,,,0,place_TALET,,1
TALET -E,29468,"TALET",,47.476182,-0.547694,,,0,place_TALET,,0
TANCE-E,25473,"TANCELLERIE",,47.516014,-0.663726,,,0,place_TANCEL,,0
TANCELL,29482,"TANCELLERIE",,47.515975,-0.663653,,,0,place_TANCEL,,0
TARTEL-E,963865,"TARTELUSSE",,47.558812,-0.437852,,,0,place_TARTEL,,0
TARTELUS,653022,"TARTELUSSE",,47.558722,-0.437693,,,0,place_TARTEL,,0
TASSIG-E,10656,"POLE TASSIGNY",,47.446522,-0.537210,,,0,place_PTASSI,,1
TEMPLE,128919,"LE TEMPLE",,47.489541,-0.428495,,,0,place_TEMPLE,,0
TEMPLE-E,986897,"LE TEMPLE",,47.489583,-0.428337,,,0,place_TEMPLE,,0
TERNEI-E,3391,"TERNIERE",,47.505693,-0.593256,,,0,place_TERNIE,,1
TERNIERE,304,"TERNIERE",,47.505698,-0.592635,,,0,place_TERNIE,,1
THOMAS-E,18250,"THOMASSERIE",,47.461739,-0.625252,,,0,place_THOMAS,,0
THOMASS,27878,"THOMASSERIE",,47.461762,-0.625348,,,0,place_THOMAS,,0
TINELL-E,996881,"TINELLIERE",,47.483942,-0.431535,,,0,place_TINELL,,0
TINELLIE,794659,"TINELLIERE",,47.483963,-0.431664,,,0,place_TINELL,,0
TOURAI-E,25515,"TOURAINE",,47.539126,-0.435316,,,0,place_TOURAI,,0
TOURAINE,26936,"TOURAINE",,47.539045,-0.435465,,,0,place_TOURAI,,0
TRELA AR,29269,"TRELAZE QUANTINIERE",,47.459854,-0.475552,,,0,place_TRELAZ,,1
TRELAZE,25775,"TRELAZE QUANTINIERE",,47.458759,-0.474445,,,0,place_TRELAZ,,1
TRELCH-E,816825,"CHEVALLERIE 45",,47.445981,-0.458682,,,0,place_TRECHE,,0
TRELCHEV,91830,"CHEVALLERIE 45",,47.446107,-0.458699,,,0,place_TRECHE,,0
TRINITE,14286,"TRINITE",,47.475221,-0.562598,,,0,place_TRINIT,,1
TRINIT-E,29503,"TRINITE",,47.475166,-0.561780,,,0,place_TRINIT,,1
TROIPA-E,22352,"TROIS PAROISSES",,47.441772,-0.534670,,,0,place_TROISP,,1
TROPAROI,30515,"TROIS PAROISSES",,47.441944,-0.534511,,,0,place_TROISP,,1
TUFFIE-E,818343,"LA TUFFIÈRE",,47.503131,-0.376603,,,0,place_TUFFIE,,0
TUFFIERE,132042,"LA TUFFIÈRE",,47.503222,-0.376703,,,0,place_TUFFIE,,0
TURMIN-E,393447,"LA TURMINIERE",,47.566690,-0.545749,,,0,place_TURMIN,,0
TURMINIE,2038,"LA TURMINIERE",,47.566668,-0.545620,,,0,place_TURMIN,,0
TURNER,908973,"TURNER",,47.511387,-0.598726,,,0,place_TURNER,,0
TURNER-E,113994,"TURNER",,47.511427,-0.598861,,,0,place_TURNER,,0
UNION,2517,"UNION",,47.519620,-0.475312,,,0,place_UNION,,1
UNION-E,2651,"UNION",,47.519615,-0.475179,,,0,place_UNION,,1
VAILLA-E,15274,"VAILLANTE",,47.485316,-0.533364,,,0,place_VAILLA,,1
VAILLANT,14457,"VAILLANTE",,47.485283,-0.533557,,,0,place_VAILLA,,1
VALDE AR,13450,"VAL DE MAINE",,47.443074,-0.612428,,,0,place_VALDEM,,1
VALDEMAI,31960,"VAL DE MAINE",,47.443062,-0.612840,,,0,place_VALDEM,,1
VALEO,20234,"VALEO",,47.502056,-0.516905,,,0,place_VALEO,,1
VALEO -E,20887,"VALEO",,47.501925,-0.517047,,,0,place_VALEO,,1
VALHAUY,7522,"VALENTIN HAUY",,47.485742,-0.556069,,,0,place_VALHAU,,1
VALHUY-E,4497,"VALENTIN HAUY",,47.486014,-0.555634,,,0,place_VALHAU,,1
VALINI-E,347379,"PETITES VALINIERES",,47.507146,-0.445060,,,0,place_VALINI,,0
VALINIER,69725,"PETITES VALINIERES",,47.507204,-0.445000,,,0,place_VALINI,,0
VALLO,23454,"VALLON",,47.463608,-0.602591,,,0,place_VALLON,,1
VALLO-E,21364,"VALLON",,47.463497,-0.602581,,,0,place_VALLON,,1
VALOR,30790,"AVRILLE VAL D'OR",,47.484669,-0.584088,,,0,place_VALDOR,,1
VALOR-E,32097,"AVRILLE VAL D'OR",,47.484836,-0.585385,,,0,place_VALDOR,,1
VANDE-E,90420,"VANDELLANT",,47.478277,-0.520831,,,0,place_VAUDEL,,1
VANDEL,63584,"VANDELLANT",,47.478031,-0.521057,,,0,place_VAUDEL,,1
VANRIE,23633,"LA VENRIE",,47.421245,-0.569988,,,0,place_LAVENR,,0
VANRIE-E,13574,"LA VENRIE",,47.421438,-0.570485,,,0,place_LAVENR,,0
VARENN-E,10527,"VARENNES",,47.565919,-0.504480,,,0,place_VARENN,,0
VAUBA2-E,18400,"VAUBAN",,47.460000,-0.560788,,,0,place_VAUBAN,,1
VAUBAN,16296,"VAUBAN",,47.460200,-0.560863,,,0,place_VAUBAN,,1
VAUGA6,7338,"VAUGAREAU",,47.483714,-0.528690,,,0,place_VAUGA6,,1
VAUGA6-E,8024,"VAUGAREAU",,47.483375,-0.528362,,,0,place_VAUGA6,,1
VAURAG-E,22290,"VAURAGERE",,47.472796,-0.635526,,,0,place_VAURAG,,1
VAURAGER,21571,"VAURAGERE",,47.472849,-0.635416,,,0,place_VAURAG,,1
VDLOIRE,6075,"VAL DE LOIRE",,47.449083,-0.513561,,,0,place_VALDEL,,1
VDLOIR-E,32158,"VAL DE LOIRE",,47.448829,-0.513406,,,0,place_VALDEL,,1
VEAUDO-E,53114,"VEAU DORE",,47.476428,-0.413401,,,0,place_VEAUDO,,0
VEAUDORE,93934,"VEAU DORE",,47.476012,-0.413596,,,0,place_VEAUDO,,0
VEILLE-E,184735,"VEILLEROT",,47.521304,-0.472268,,,0,place_VEILLE,,0
VEILLERO,203459,"VEILLEROT",,47.521301,-0.472486,,,0,place_VEILLE,,0
VENAIS-E,6725,"VENAISERIE",,47.470825,-0.489667,,,0,place_VENAI,,1
VENAISER,5844,"VENAISERIE",,47.471029,-0.489628,,,0,place_VENAI,,1
VENSCO,863100,"VENAISERIE COLLEGE",,47.471673,-0.486287,,,0,place_VENAIS,,0
VENSCO-E,274484,"VENAISERIE COLLEGE",,47.471665,-0.486292,,,0,place_VENAIS,,0
VERDUN,31885,"SAINT BARTHELEMY VERDUN",,47.468191,-0.493242,,,0,place_SBVERD,,1
VERDUN-E,32668,"SAINT BARTHELEMY VERDUN",,47.468482,-0.492796,,,0,place_SBVERD,,1
VERIGNE,12319,"VERIGNE",,47.588269,-0.493678,,,0,place_VERIGN,,0
VERIGN-E,24724,"VERIGNE",,47.588212,-0.493507,,,0,place_VERIGN,,0
VERN-ARA,62000,"AURIOL",,47.491128,-0.565086,,,0,place_VERNEA,,1
VERN-ARB,81722,"AURIOL",,47.491128,-0.565086,,,0,place_VERNEA,,1
VERNEA-E,24578,"AURIOL",,47.491289,-0.564935,,,0,place_VERNEA,,1
VERNEREN,32066,"VERNEAU AQUAVITA (08)",,47.493095,-0.568663,,,0,place_AQUAVI,,1
VERNRE-E,23598,"VERNEAU AQUAVITA (08)",,47.493095,-0.568663,,,0,place_AQUAVI,,1
VERNUIT,2307,"AQUAVITA",,47.493361,-0.565539,,,0,place_AQUAVI,,0
VERNUS-E,460891,"VERNUSSON FLORILOIRE",,47.430456,-0.542212,,,0,place_VERNUS,,1
VERNUSSO,32414,"VERNUSSON FLORILOIRE",,47.430422,-0.542204,,,0,place_VERNUS,,1
VERTRA-E,7353,"VERNEAU",,47.492594,-0.567167,,,0,place_VERNTR,,1
VHUGO,15227,"VICTOR HUGO MONTREUIL",,47.528222,-0.611817,,,0,place_VIHUGO,,0
VHUGO-E,7391,"VICTOR HUGO MONTREUIL",,47.528209,-0.611667,,,0,place_VIHUGO,,0
VHUGOMJ,10228,"VICTOR HUGO MONTREUIL",,47.528177,-0.611918,,,0,place_VIHUGO,,0
VICT-D,98126,"VICTOR HUGO",,47.523490,-0.467469,,,0,place_VICSSY,,1
VICT-D-E,415331,"VICTOR HUGO",,47.523543,-0.467406,,,0,place_VICSSY,,1
VICTHU-E,7901,"VICTOR HUGO",,47.522093,-0.469566,,,0,place_VICSSY,,0
VICTHUGO,7019,"VICTOR HUGO",,47.522155,-0.469641,,,0,place_VICSSY,,0
VIELLMAI,21047,"VIEILLE MAINE",,47.529842,-0.527821,,,0,place_VIEMAN,,0
VIELMA-E,22163,"VIEILLE MAINE",,47.529978,-0.527770,,,0,place_VIEMAN,,0
VIEUXP-E,658385,"VIEUX PORT",,47.570230,-0.495249,,,0,place_VXPORT,,0
VIEUXPOR,876933,"VIEUX PORT",,47.570296,-0.495410,,,0,place_VXPORT,,0
VIGNES,18380,"LES VIGNES",,47.408901,-0.626354,,,0,place_VIGNES,,1
VIGNES-E,19033,"LES VIGNES",,47.408537,-0.626331,,,0,place_VIGNES,,1
VILBRG-E,645260,"BEAUREGARD",,47.533845,-0.434720,,,0,place_BOREGA,,0
VILLEC-E,8804,"VILLECHIEN",,47.463242,-0.519524,,,0,place_VILCHI,,1
VILLECHI,12145,"VILLECHIEN",,47.462630,-0.519742,,,0,place_VILCHI,,1
VILLEN-E,12314,"VILLENEUVE",,47.508319,-0.434702,,,0,place_VILNEU,,0
VILLENEU,25376,"VILLENEUVE",,47.508334,-0.435058,,,0,place_VILNEU,,0
VILLES-E,26023,"VILLESICARD",,47.452417,-0.538389,,,0,place_VILLES,,0
VILLESIC,8016,"VILLESICARD",,47.452474,-0.538335,,,0,place_VILLES,,0
VILSAN-E,309,"VILLAGE SANTE",,47.457155,-0.512175,,,0,place_VILSAN,,1
VILSANTE,17408,"VILLAGE SANTE",,47.457561,-0.512721,,,0,place_VILSAN,,1
VILVEC-E,16488,"ECOLE DE VILLEVEQUE",,47.560886,-0.421428,,,0,place_VILECO,,0
VILVECOL,28122,"ECOLE DE VILLEVEQUE",,47.560853,-0.421632,,,0,place_VILECO,,0
VILVEQ-E,14981,"MAIRIE DE VILLEVEQUE",,47.559368,-0.422071,,,0,place_VILVEQ,,0
VILVEQUE,4402,"MAIRIE DE VILLEVEQUE",,47.559473,-0.422195,,,0,place_VILVEQ,,0
VIRELE-E,976747,"VIRELET",,47.478638,-0.340190,,,0,place_VIRELE,,0
VIRELET,259631,"VIRELET",,47.478741,-0.340244,,,0,place_VIRELE,,0
VIVIER-E,27166,"VIVIERS",,47.451540,-0.535168,,,0,place_VIVIER,,1
VIVIERS,29924,"VIVIERS",,47.451693,-0.535200,,,0,place_VIVIER,,1
VOISINAY,896110,"VOISINAY",,47.418918,-0.345394,,,0,place_VOINAY,,0
VOLNEY,25948,"VOLNEY",,47.460438,-0.538013,,,0,place_VOLNEY,,1
VOLNEY-E,29618,"VOLNEY",,47.460567,-0.538639,,,0,place_VOLNEY,,1
VOLTAI-E,11140,"VOLTAIRE",,47.484519,-0.531053,,,0,place_DUNANT,,0
VOLTAIR,10823,"VOLTAIRE",,47.484872,-0.531345,,,0,place_DUNANT,,0
WALCOU-E,20782,"WALCOURT",,47.463395,-0.486229,,,0,place_WALCOU,,1
WALCOURT,20031,"WALCOURT",,47.463316,-0.485967,,,0,place_WALCOU,,1
WIGAN,15554,"WIGAN",,47.459381,-0.608138,,,0,place_WIGAN,,1
WIGAN-E,16501,"WIGAN",,47.459477,-0.608128,,,0,place_WIGAN,,1
WTBO-E,30166,"TERRA BOTANICA",,47.494206,-0.575096,,,0,place_TBOT,,1
WTBOT,45969,"TERRA BOTANICA",,47.494083,-0.574716,,,0,place_TBOT,,1
WVERN,27317,"VERNEAU",,47.492391,-0.567528,,,0,place_VERNTR,,1
ZARTISAN,20846,"ZA FENEU DEPART",,47.579282,-0.591373,,,0,place_ZARTIS,,0
ZARTIS-E,14755,"ZONE ARTISANALE",,47.579628,-0.591927,,,0,place_ZARTIS,,0
ZBRUNE-E,18029,"ZI BRUNELLERIES",,47.435013,-0.614815,,,0,place_BRUNE,,0
ZBRUNELL,2006,"ZI BRUNELLERIES",,47.435013,-0.614815,,,0,place_BRUNE,,0
ZIBEAUC,23205,"ZI BEAUCOUZE",,47.460025,-0.619339,,,0,place_TERTRE,,0
ZIBEAU-E,19670,"ZI BEAUCOUZE",,47.459969,-0.619290,,,0,place_TERTRE,,0
ZICOPE-E,704348,"COPERNIC",,47.516842,-0.610432,,,0,place_COPERA,,1
ZICOPER,389482,"COPERNIC",,47.516842,-0.610432,,,0,place_COPERA,,0
ZPOL49,91599,"POLE 49",,47.489000,-0.491226,,,0,place_POLE49,,1
place__ARD,,"AVRILLE - ARDENNE",,47.511834,-0.596230,,,1,,,0
place__ARO,,"ANGERS - ROSERAIE",,47.443891,-0.553716,,,1,,,0
place__BAM,,"BAMAKO",,47.452165,-0.556459,,,1,,,0
place__BMA,,"BERGES DE MAINE",,47.479110,-0.549085,,,1,,,0
place__BOT,,"TERRA BOTANICA",,47.494289,-0.574588,,,1,,,0
place__CAP,,"CAPUCINS",,47.487107,-0.554964,,,1,,,0
place__CCO,,"CENTRE DES CONGRES",,47.474092,-0.545569,,,1,,,0
place__HDV,,"HOTEL DE VILLE",,47.471713,-0.546688,,,1,,,0
place__HOP,,"CHU - HOPITAL",,47.481248,-0.554232,,,1,,,0
place__MOU,,"JEAN MOULIN",,47.490467,-0.552195,,,1,,,0
place__SSE,,"SAINT SERGE UNIVERSITE",,47.476676,-0.551346,,,1,,,0
place__VER,,"VERNEAU",,47.492488,-0.567357,,,1,,,0
place_1ACA,,"ACACIAS",,47.503648,-0.586132,,,1,,,0
place_1BAS,,"BASCULE",,47.508708,-0.591538,,,1,,,0
place_1HAR,,"FOCH HARAS",,47.467012,-0.552309,,,1,,,0
place_1HSA,,"HAUTS DE SAINT AUBIN",,47.492200,-0.560588,,,1,,,0
place_1JEA,,"JEAN XXIII Voie 1",,47.448607,-0.562932,,,1,,,0
place_1LAF,,"PLACE LA FAYETTE",,47.461020,-0.554543,,,1,,,0
place_1MAY,,"PLATEAU MAYENNE",,47.496075,-0.580106,,,1,,,0
place_1ROY,,"BOIS DU ROY",,47.499843,-0.583284,,,1,,,0
place_1STG,,"SAINT GILLES",,47.506429,-0.589457,,,1,,,0
place_1STR,,"STRASBOURG",,47.457134,-0.554104,,,1,,,0
place_1VIL,,"JEAN VILAR",,47.444779,-0.562369,,,1,,,0
place_2ACA,,"ACACIAS",,47.503648,-0.586132,,,1,,,0
place_2BAS,,"BASCULE",,47.508708,-0.591538,,,1,,,0
place_2HAR,,"FOCH HARAS",,47.467016,-0.552306,,,1,,,0
place_2HSA,,"HAUTS DE SAINT AUBIN",,47.492200,-0.560588,,,1,,,0
place_2JEA,,"JEAN XXIII Voie 2",,47.448552,-0.562844,,,1,,,0
place_2LAF,,"PLACE LA FAYETTE",,47.461020,-0.554544,,,1,,,0
place_2MAY,,"PLATEAU MAYENNE",,47.496075,-0.580106,,,1,,,0
place_2ROY,,"BOIS DU ROY",,47.499843,-0.583284,,,1,,,0
place_2STG,,"SAINT GILLES",,47.506429,-0.589457,,,1,,,0
place_2STR,,"STRASBOURG",,47.457134,-0.554104,,,1,,,0
place_2VIL,,"JEAN VILAR",,47.444779,-0.562369,,,1,,,0
place_AAMIPI,,"AMIPI",,47.463741,-0.626651,,,1,,,0
place_ABRUEL,,"ANDRE BRUEL",,47.526629,-0.468062,,,1,,,0
place_ACABLA,,"PLACE DE L'ACADEMIE",,47.468072,-0.558896,,,1,,,0
place_AFPA,,"AFPA",,47.471502,-0.523093,,,1,,,0
place_AIGREF,,"AIGREFOIN",,47.473276,-0.439670,,,1,,,0
place_ALLARD,,"ALLARD",,47.449224,-0.538697,,,1,,,0
place_ALLEMA,,"ALLEMAGNE",,47.527065,-0.601613,,,1,,,0
place_ALLONO,,"ALLONNEAU",,47.485208,-0.526952,,,1,,,0
place_ALLU,,"ALLUMETTES",,47.445161,-0.502247,,,1,,,0
place_ALSACE,,"ALSACE",,47.470200,-0.550254,,,1,,,0
place_ANAFRA,,"ANATOLE FRANCE",,47.531202,-0.613732,,,1,,,0
place_ANDARD,,"MAIRIE D'ANDARD",,47.456518,-0.397941,,,1,,,0
place_ANDLAU,,"GRAND LAUNAY",,47.461924,-0.387325,,,1,,,0
place_ANDREZ,,"REZEAU",,47.467409,-0.380429,,,1,,,0
place_ANLERO,,"ANDRE LEROY",,47.464642,-0.548614,,,1,,,0
place_ANNEFR,,"ANNE FRANCK",,47.463511,-0.537769,,,1,,,0
place_ANREST,,"RESTAURANT",,47.456915,-0.393822,,,1,,,0
place_APPENT,,"APPENTIS",,47.445359,-0.546424,,,1,,,0
place_AQUAVI,,"AQUAVITA",,47.493402,-0.565542,,,1,,,0
place_ARBORE,,"ARBORETUM",,47.449351,-0.544287,,,1,,,0
place_ARCADE,,"ARCADES",,47.507067,-0.516724,,,1,,,0
place_ARCEAU,,"ARCEAU",,47.471026,-0.519810,,,1,,,0
place_ARDENN,,"AVRILLE - ARDENNE",,47.511834,-0.596230,,,1,,,0
place_ARENA,,"ARENA LOIRE",,47.443451,-0.478483,,,1,,,0
place_ARENAL,,"ARENA LOIRE",,47.443454,-0.478290,,,1,,,0
place_ARGENT,,"CREMAILLERE D'ARGENT",,47.465297,-0.433211,,,1,,,0
place_AROBAS,,"AROBASE",,47.464292,-0.531622,,,1,,,0
place_ATHLET,,"ATHLETIS",,47.441542,-0.528149,,,1,,,0
place_ATOL38,,"L'ATOLL SUB",,47.483194,-0.632196,,,1,,,0
place_ATOLL,,"L'ATOLL - BEAUCOUZE",,47.484238,-0.626419,,,1,,,0
place_AUBEPI,,"AUBEPINE",,47.461633,-0.495942,,,1,,,0
place_AUBERD,,"AUBERDERIE",,47.537895,-0.478614,,,1,,,0
place_AUBRIA,,"AUBRIAIS",,47.515770,-0.667805,,,1,,,0
place_AUBRY,,"AUBRY",,47.441411,-0.552149,,,1,,,0
place_AULNAI,,"LES AULNAIES",,47.586808,-0.439931,,,1,,,0
place_AULNER,,"AULNERIE",,47.587502,-0.492876,,,1,,,0
place_AUTHIO,,"AUTHION",,47.431542,-0.528615,,,1,,,0
place_AUTRIC,,"AUTRICHE",,47.522947,-0.609682,,,1,,,0
place_AUVERG,,"AUVERGNE",,47.489851,-0.530440,,,1,,,0
place_AVALOU,,"AVALOUP",,47.456855,-0.436962,,,1,,,0
place_AVEURO,,"AVENUE DE L'EUROPE",,47.528080,-0.595290,,,1,,,0
place_AVICEN,,"AVICENNE",,47.481280,-0.688640,,,1,,,0
place_BACHOU,,"BACHOUASNE",,47.467814,-0.433391,,,1,,,0
place_BAHONN,,"BAHONNEAU",,47.453308,-0.483095,,,1,,,0
place_BALAND,,"BASSE LANDE",,47.505067,-0.595368,,,1,,,0
place_BALLOU,,"BALLOUR",,47.483243,-0.562464,,,1,,,0
place_BALUER,,"LES BALUERES",,47.377629,-0.524762,,,1,,,0
place_BARBOT,,"BARBOTTERIE",,47.400671,-0.524968,,,1,,,0
place_BARBRE,,"BARBREAU",,47.472114,-0.591121,,,1,,,0
place_BARONN,,"ST AUBIN LA SALLE",,47.489379,-0.503804,,,1,,,0
place_BARRA,,"BARRA",,47.483770,-0.563830,,,1,,,0
place_BARRE,,"LA BARRE",,47.473006,-0.597643,,,1,,,0
place_BASCHE,,"BAS CHEMIN",,47.424959,-0.384258,,,1,,,0
place_BASMOR,,"BAS MORTIER",,47.515346,-0.474555,,,1,,,0
place_BASSCH,,"BASSE CHESNAIE",,47.573838,-0.677420,,,1,,,0
place_BAUDON,,"BAUDON",,47.539339,-0.579349,,,1,,,0
place_BAUDRA,,"BAUDRAIRIE",,47.437900,-0.507340,,,1,,,0
place_BAUN,,"BAUNE CENTRE",,47.499355,-0.318601,,,1,,,0
place_BBRANC,,"BELLE BRANCHE",,47.528194,-0.528307,,,1,,,0
place_BEADIM,,"MAIRIE DE BEAUCOUZE",,47.474578,-0.630103,,,1,,,0
place_BEAUCO,,"BEAUCOUZE HAUTE ROCHE",,47.470303,-0.625148,,,1,,,0
place_BEAULI,,"BEAULIEU",,47.495495,-0.436849,,,1,,,0
place_BEAUMA,,"BEAUMANOIR",,47.451686,-0.510787,,,1,,,0
place_BEAURE,,"BEAUREPAIRE",,47.473994,-0.559571,,,1,,,0
place_BEAUVN,,"BEAUVAL",,47.451542,-0.550847,,,1,,,0
place_BECKER,,"BECKER",,47.538829,-0.622095,,,1,,,0
place_BEDAUD,,"BÉDAUDIÈRE",,47.501345,-0.394160,,,1,,,0
place_BEDIER,,"BEDIER",,47.450012,-0.552705,,,1,,,0
place_BEJONI,,"BEJONNIERES",,47.481313,-0.510155,,,1,,,0
place_BELAIR,,"BEL AIR",,47.529410,-0.606357,,,1,,,0
place_BELLAN,,"BELLANGERIE",,47.482274,-0.684713,,,1,,,0
place_BELLEP,,"BELLE POULE",,47.428157,-0.527455,,,1,,,0
place_BELLEV,,"BELLEVUE",,47.448101,-0.507097,,,1,,,0
place_BELMOT,,"BELLE MOTTE",,47.531040,-0.516549,,,1,,,0
place_BELNOU,,"BELLENOUE",,47.420631,-0.300963,,,1,,,0
place_BELOEI,,"BEL OEIL",,47.426862,-0.556717,,,1,,,0
place_BELPLE,,"BELLEVUE PLESSIS GRAMMOIRE",,47.504748,-0.440313,,,1,,,0
place_BELVUE,,"CORNE BELLEVUE",,47.473577,-0.346383,,,1,,,0
place_BERGER,,"BERGERIE",,47.487494,-0.471253,,,1,,,0
place_BESNAR,,"BESNARDIERE",,47.479771,-0.544219,,,1,,,0
place_BEURRE,,"BEURRIERE",,47.497462,-0.589387,,,1,,,0
place_BGPAIL,,"BOURG DE PAILLE",,47.473272,-0.623242,,,1,,,0
place_BIAIS,,"BIAIS",,47.584750,-0.539381,,,1,,,0
place_BICHON,,"BICHON",,47.478993,-0.564536,,,1,,,0
place_BIGOT,,"BIGOT",,47.482320,-0.560786,,,1,,,0
place_BIOPOL,,"BIOPOLE",,47.482124,-0.496408,,,1,,,0
place_BIRGE,,"BIRGE",,47.474964,-0.519833,,,1,,,0
place_BLANDE,,"BLANDEAU",,47.457455,-0.543265,,,1,,,0
place_BLERIO,,"BLERIOT",,47.486057,-0.563541,,,1,,,0
place_BLITOU,,"BLITOURNE",,47.527256,-0.434183,,,1,,,0
place_BMAINE,,"BERGES DE MAINE",,47.479111,-0.549082,,,1,,,0
place_BMAR,,"BASSE MARZELLE",,47.341770,-0.524801,,,1,,,0
place_BODIN,,"BODINIERE",,47.585441,-0.447204,,,1,,,0
place_BODINI,,"BODINIER",,47.472747,-0.553285,,,1,,,0
place_BOHBRA,,"ROUTE DE BRAIN",,47.421449,-0.399192,,,1,,,0
place_BOHCEN,,"CENDREUSE",,47.422348,-0.385055,,,1,,,0
place_BOIEPI,,"LE BOIS EPINARD",,47.474516,-0.330280,,,1,,,0
place_BOIPOU,,"BOIS DE POUILLE",,47.423240,-0.687553,,,1,,,0
place_BOIRES,,"LES BOIRES",,47.410834,-0.295943,,,1,,,0
place_BOISAB,,"BOIS L'ABBÉ",,47.490333,-0.514124,,,1,,,0
place_BOISHO,,"BOIS DE L'HOPITAL",,47.470488,-0.459277,,,1,,,0
place_BOISNE,,"BOISNERIE",,47.511550,-0.360016,,,1,,,0
place_BOISRA,,"BOISRAME",,47.478277,-0.584748,,,1,,,0
place_BOISRI,,"BOIS RINIER",,47.476507,-0.497694,,,1,,,0
place_BOISSI,,"LA BOISSIERE",,47.504738,-0.600065,,,1,,,0
place_BONNER,,"BONNERIE",,47.522876,-0.446397,,,1,,,0
place_BONPLA,,"BONPLAND",,47.514575,-0.590530,,,1,,,0
place_BOREAU,,"BOREAU",,47.475280,-0.546021,,,1,,,0
place_BOREGA,,"BEAUREGARD",,47.533856,-0.434776,,,1,,,0
place_BOSQUE,,"BOSQUET",,47.409901,-0.524594,,,1,,,0
place_BOUCAM,,"CAMPING DE BOUCHEMAINE",,47.419341,-0.611504,,,1,,,0
place_BOUCHE,,"BOUCHEMAINE",,47.421699,-0.610481,,,1,,,0
place_BOUCTH,,"BOUCHE THOMAS",,47.444682,-0.550222,,,1,,,0
place_BOUJOL,,"BOURG JOLY",,47.408850,-0.313250,,,1,,,0
place_BOULLE,,"BOULLE",,47.486610,-0.628635,,,1,,,0
place_BOURGL,,"BOURG LA CROIX",,47.450768,-0.523777,,,1,,,0
place_BOURGO,,"BOURGONNIER",,47.461890,-0.541711,,,1,,,0
place_BOURRE,,"BOURRELIERE",,47.381916,-0.564062,,,1,,,0
place_BOURSE,,"BOURSE",,47.442675,-0.495268,,,1,,,0
place_BOUSOU,,"BOURG DE SOULAINES",,47.364804,-0.525099,,,1,,,0
place_BOUTEI,,"BOUTEILLERIE",,47.479828,-0.432072,,,1,,,0
place_BOUVET,,"BOUVET",,47.563023,-0.675545,,,1,,,0
place_BPASTE,,"BON PASTEUR",,47.470525,-0.569055,,,1,,,0
place_BRAIN8,,"PLACE DU 8 MAI",,47.445960,-0.412066,,,1,,,0
place_BRARDI,,"BRARDIERE",,47.582214,-0.494152,,,1,,,0
place_BRASSE,,"BRASSENS",,47.494512,-0.586838,,,1,,,0
place_BRETEA,,"BRETEAU",,47.573710,-0.437273,,,1,,,0
place_BRGPAI,,"BOURG DE PAILLE",,47.474613,-0.624803,,,1,,,0
place_BRIANC,,"CHATEAU BRIANCON",,47.503434,-0.351606,,,1,,,0
place_BRIOLL,,"MAIRIE DE BRIOLLAY",,47.563581,-0.507510,,,1,,,0
place_BRISEP,,"BRISEPOTIERE",,47.479274,-0.527967,,,1,,,0
place_BROCHO,,"BROCHONS",,47.421905,-0.327331,,,1,,,0
place_BRSPOR,,"SALLE DE SPORT",,47.561674,-0.505144,,,1,,,0
place_BRULET,,"BRULETTE",,47.580037,-0.440631,,,1,,,0
place_BRUNE,,"BRUNELLERIES",,47.435013,-0.614815,,,1,,,0
place_BSOLEI,,"BEAU SOLEIL",,47.426645,-0.721304,,,1,,,0
place_BUCHE,,"BUCHETIERE",,47.559715,-0.428202,,,1,,,0
place_BUIBEL,,"LES BUISSONS BELLES",,47.447993,-0.421011,,,1,,,0
place_BUISSA,,"LA BUISSAIE",,47.396129,-0.552189,,,1,,,0
place_BUISSO,,"BUISSON",,47.441970,-0.484297,,,1,,,0
place_BVALLE,,"BASSES VALLÉES",,47.579195,-0.499720,,,1,,,0
place_CALAIS,,"CALAIS",,47.462090,-0.432499,,,1,,,0
place_CAME,,"CAMELIA",,47.471298,-0.518982,,,1,,,0
place_CAMLAC,,"LAC DE MAINE CAMPING",,47.457911,-0.597112,,,1,,,0
place_CAMUS,,"CAMUS",,47.485118,-0.575811,,,1,,,0
place_CANTEN,,"CANTENAY",,47.531740,-0.567494,,,1,,,0
place_CAPUCI,,"CAPUCINS",,47.487108,-0.554961,,,1,,,0
place_CARLIN,,"CARL LINNE",,47.446521,-0.547689,,,1,,,0
place_CARMET,,"JEAN CARMET",,47.400409,-0.543434,,,1,,,0
place_CARREA,,"CARREAUX",,47.512500,-0.471532,,,1,,,0
place_CARREF,,"CARREFOUR ST SERGE",,47.487953,-0.542975,,,1,,,0
place_CASSAT,,"MARY CASSAT",,47.510822,-0.603493,,,1,,,0
place_CATHED,,"CATHEDRALE",,47.484863,-0.540864,,,1,,,0
place_CBEAUV,,"CROIX DE BEAUVAIS",,47.612170,-0.585156,,,1,,,0
place_CCADEA,,"CROIX CADEAU",,47.520110,-0.609699,,,1,,,0
place_CCHEMI,,"CROIX DE CHEMINEE",,47.467652,-0.503070,,,1,,,0
place_CCOMME,,"CENTRE COMMERCIAL",,47.437798,-0.526845,,,1,,,0
place_CCPRUN,,"GROUPE COMMERCIAL",,47.445657,-0.606267,,,1,,,0
place_CDETRI,,"CENTRE DE TRI",,47.452401,-0.570565,,,1,,,0
place_CENEQU,,"CENTRE EQUESTRE",,47.459575,-0.484634,,,1,,,0
place_CENTRE,,"FOCH LORRAINE",,47.469634,-0.549074,,,1,,,0
place_CESGEO,,"CESAR GEOFFRAY",,47.458515,-0.545714,,,1,,,0
place_CEVERT,,"FRANCOIS CEVERT",,47.446457,-0.543911,,,1,,,0
place_CHAANG,,"CHATEAU D'ANGERS",,47.468909,-0.559155,,,1,,,0
place_CHACOM,,"CHAMBRE DE COMMERCE",,47.468271,-0.557726,,,1,,,0
place_CHAERI,,"CHATEAU D'ERIGNE",,47.406433,-0.525883,,,1,,,0
place_CHAGAL,,"CHAGALL LA MEMBROLLE",,47.560100,-0.677553,,,1,,,0
place_CHAL-E,,"CHALOUERE",,47.481646,-0.536403,,,1,,,0
place_CHAMFL,,"CHAMPFLEUR",,47.482831,-0.504084,,,1,,,0
place_CHAMPB,,"CHAMPBOUREAU",,47.396613,-0.636717,,,1,,,0
place_CHAMPD,,"CHAMPDOLLANT",,47.556558,-0.561429,,,1,,,0
place_CHANSO,,"ROUTE DE LA CHANSONNIERE",,47.583633,-0.483399,,,1,,,0
place_CHANTE,,"CHANTERIE",,47.470914,-0.628053,,,1,,,0
place_CHANTO,,"CHANTOURTEAU",,47.406124,-0.623119,,,1,,,0
place_CHANZY,,"CHANZY",,47.460102,-0.557568,,,1,,,0
place_CHAPEL,,"CHAPELLES",,47.468685,-0.382964,,,1,,,0
place_CHARNA,,"CHARNASSERIE",,47.491720,-0.557193,,,1,,,0
place_CHARRU,,"CHARRUAU",,47.372765,-0.509229,,,1,,,0
place_CHASOU,,"CHAPELLES SOULAIRE",,47.577042,-0.544752,,,1,,,0
place_CHATAI,,"CHATAIGNIER",,47.545770,-0.649935,,,1,,,0
place_CHATEL,,"CHATELAIN",,47.483007,-0.514459,,,1,,,0
place_CHATEN,,"CHATENAY",,47.482649,-0.521180,,,1,,,0
place_CHAUMI,,"CHAUMIERES",,47.524277,-0.523310,,,1,,,0
place_CHBBEI,,"CHAPELLE BELLE BEILLE",,47.475637,-0.586056,,,1,,,0
place_CHBLAN,,"CHAMPS BLANCS",,47.517291,-0.475244,,,1,,,0
place_CHEMON,,"CHEMIN DE MONGAZON",,47.483477,-0.483245,,,1,,,0
place_CHENAI,,"LA CHENAIE",,47.548005,-0.474353,,,1,,,0
place_CHENRD,,"CHENE ROND",,47.395891,-0.536328,,,1,,,0
place_CHEPRE,,"CHEMIN DU PRE",,47.467220,-0.635537,,,1,,,0
place_CHEPRU,,"LA CHESNAIE PRUILLE",,47.566089,-0.677998,,,1,,,0
place_CHESAL,,"CHEMIN SALETTE",,47.424654,-0.389126,,,1,,,0
place_CHEVAL,,"CHEVALLERIE",,47.554316,-0.660314,,,1,,,0
place_CHEVRI,,"CHEVRIERE",,47.423903,-0.609164,,,1,,,0
place_CHEVRO,,"CHEVROLLIER",,47.453885,-0.557373,,,1,,,0
place_CHFLCA,,"CHAMP FLEURI CANTENAY",,47.537243,-0.571143,,,1,,,0
place_CHFLFE,,"CHAMP FLEURI FENEU",,47.567840,-0.579312,,,1,,,0
place_CHMART,,"CHAMP DES MARTYRS",,47.489958,-0.582857,,,1,,,0
place_CHOUTE,,"CHOUTEAU",,47.446185,-0.496815,,,1,,,0
place_CHVERT,,"CHENE VERT",,47.470248,-0.515904,,,1,,,0
place_CIMETI,,"CIMETIERE DE L'EST",,47.471302,-0.527733,,,1,,,0
place_CIMOUE,,"CIMETIERE DE L'OUEST",,47.478850,-0.570225,,,1,,,0
place_CIMSAR,,"CIMETIERE DE SARRIGNE",,47.501516,-0.387715,,,1,,,0
place_CIPONT,,"CIMETIERE DES PONTS DE CE",,47.434297,-0.529904,,,1,,,0
place_CITEUN,,"CITE UNIVERSITAIRE",,47.478777,-0.598029,,,1,,,0
place_CITRON,,"CITRON",,47.479371,-0.633877,,,1,,,0
place_CLAIE,,"CLAIE",,47.460740,-0.627075,,,1,,,0
place_CLAR,,"CLARTE",,47.454058,-0.481343,,,1,,,0
place_CLAUDE,,"CLAUDEL",,47.449759,-0.566515,,,1,,,0
place_CLAVER,,"CLAVERIE",,47.486652,-0.504501,,,1,,,0
place_CLINIQ,,"CLINIQUE DE L'ANJOU",,47.444443,-0.539081,,,1,,,0
place_CLINST,,"CLINIQUE SAINT DIDIER",,47.485252,-0.587247,,,1,,,0
place_CLOSDU,,"CLOS DU VAU",,47.577194,-0.458146,,,1,,,0
place_CLOTEA,,"CLOTEAU",,47.507523,-0.408553,,,1,,,0
place_CLOUET,,"CLOUET",,47.480453,-0.566372,,,1,,,0
place_CLVIGN,,"CLOS DE LA VIGNE",,47.441618,-0.611276,,,1,,,0
place_CNFPT,,"CNFPT",,47.472349,-0.599840,,,1,,,0
place_COINTR,,"COINTREAU",,47.476405,-0.507478,,,1,,,0
place_COLOMB,,"COLOMBIER",,47.482509,-0.490482,,,1,,,0
place_COLTRI,,"COLTRIE",,47.485394,-0.675924,,,1,,,0
place_COMBEA,,"CROIX COMBEAU",,47.453994,-0.408400,,,1,,,0
place_COPERA,,"COPERNIC",,47.516842,-0.610432,,,1,,,0
place_CORBAS,,"LA BASCULE",,47.471616,-0.341023,,,1,,,0
place_CORMIE,,"CORMIERS",,47.458183,-0.515639,,,1,,,0
place_CORNCR,,"CROIX VERTE",,47.474089,-0.354791,,,1,,,0
place_CORNMA,,"MAIRIE DE CORNE",,47.470953,-0.350610,,,1,,,0
place_CORSCO,,"LA CROIX VERTE Scol",,47.474265,-0.354756,,,1,,,0
place_CORZE,,"CORZÉ",,47.556572,-0.389491,,,1,,,0
place_COSSE,,"COSSE",,47.438236,-0.553332,,,1,,,0
place_COSSIE,,"COSSIERES",,47.526083,-0.448202,,,1,,,0
place_COTEAU,,"LE COTEAU",,47.398133,-0.548850,,,1,,,0
place_COTRA,,"REF DEPOT et  ZI EST",,47.474966,-0.495601,,,1,,,0
place_COTTAG,,"COTTAGE",,47.494694,-0.515236,,,1,,,0
place_COUREA,,"COUREAU",,47.420385,-0.368701,,,1,,,0
place_COUTAR,,"COUTARDIERE",,47.466241,-0.408238,,,1,,,0
place_CRBLAN,,"CROIX BLANCHE",,47.480807,-0.517161,,,1,,,0
place_CRESSO,,"CRESSONNIERE",,47.474343,-0.492242,,,1,,,0
place_CRETAU,,"CRETAUDIERE",,47.475587,-0.366261,,,1,,,0
place_CRFRUX,,"CROIX DES FRUX",,47.503280,-0.690967,,,1,,,0
place_CROBOI,,"CROIX DE BOIS",,47.449052,-0.424418,,,1,,,0
place_CROISE,,"CROISÉE",,47.458985,-0.667829,,,1,,,0
place_CROIST,,"CROISETTE",,47.450948,-0.600277,,,1,,,0
place_CSARTH,,"CROIX DE SARTHE",,47.540033,-0.570117,,,1,,,0
place_DAGCHE,,"LE CHENE",,47.420197,-0.445760,,,1,,,0
place_DAGEGL,,"PLACE DE L'EGLISE",,47.419354,-0.436783,,,1,,,0
place_DAGUVA,,"VAL D'AUTHION",,47.419337,-0.428202,,,1,,,0
place_DANEMA,,"DANEMARK",,47.527788,-0.597684,,,1,,,0
place_DANIEL,,"DANIEL GELIN",,47.445136,-0.527045,,,1,,,0
place_DARWIN,,"DARWIN",,47.474046,-0.604714,,,1,,,0
place_DAUTEL,,"DAUTEL",,47.442834,-0.483456,,,1,,,0
place_DAVIER,,"DAVIERES",,47.583194,-0.477799,,,1,,,0
place_DEBOVE,,"DE BEAUVOIR",,47.528993,-0.614663,,,1,,,0
place_DEBULY,,"Collège DEBUSSY",,47.488496,-0.515916,,,1,,,0
place_DEBUSS,,"DEBUSSY",,47.487962,-0.516408,,,1,,,0
place_DEGAUL,,"DE GAULLE",,47.453239,-0.478284,,,1,,,0
place_DELACR,,"DELACROIX",,47.454899,-0.528731,,,1,,,0
place_DELATT,,"DE LATTRE",,47.452756,-0.541247,,,1,,,0
place_DELESC,,"DELESCLUZE",,47.466065,-0.604969,,,1,,,0
place_DESERR,,"DE SERRE",,47.477774,-0.615047,,,1,,,0
place_DESJAR,,"DESJARDINS",,47.477905,-0.530204,,,1,,,0
place_DESMAZ,,"DESMAZIERES",,47.462594,-0.534764,,,1,,,0
place_DEUVAL,,"DEUX VALLEES",,47.568285,-0.498823,,,1,,,0
place_DIONNE,,"DIONNEAU",,47.438787,-0.530125,,,1,,,0
place_DIONNI,,"DIONNIERE",,47.543701,-0.485126,,,1,,,0
place_DIX8JU,,"18 JUIN",,47.529566,-0.618085,,,1,,,0
place_DLATTR,,"DE LATTRE",,47.452756,-0.541247,,,1,,,0
place_DOJO,,"DOJO DAGUERRE",,47.446569,-0.506593,,,1,,,0
place_DOLANT,,"DOLANTIN",,47.527973,-0.445076,,,1,,,0
place_DOMVAL,,"DOMAINE DU VAL",,47.536656,-0.624831,,,1,,,0
place_DOREAU,,"CLOS DOREAU",,47.496288,-0.425199,,,1,,,0
place_DOUBLO,,"LA DOUBLONNIÈRE",,47.403736,-0.668803,,,1,,,0
place_DOYENN,,"DOYENNE",,47.490583,-0.532517,,,1,,,0
place_DSCAZE,,"DESCAZEAUX",,47.476441,-0.566473,,,1,,,0
place_DUBE,,"DUBE",,47.415571,-0.523223,,,1,,,0
place_DUBELL,,"DU BELLAY",,47.492324,-0.513311,,,1,,,0
place_DUMESN,,"DUMESNIL",,47.473737,-0.567118,,,1,,,0
place_DUMNAC,,"DUMNACUS",,47.486429,-0.592049,,,1,,,0
place_DUMONT,,"DUMONT D'URVILLE",,47.445134,-0.557199,,,1,,,0
place_DUNANT,,"VOLTAIRE",,47.484695,-0.531199,,,1,,,0
place_DUNLEP,,"DUNANT",,47.483438,-0.525625,,,1,,,0
place_DUREL2,,"DURELLERIES 2",,47.431109,-0.641803,,,1,,,0
place_DURELL,,"DURELLERIES",,47.428927,-0.641290,,,1,,,0
place_DXCRX,,"DAGUENET",,47.474784,-0.528208,,,1,,,0
place_DZIERE,,"AVRILLE ADEZIERE",,47.504950,-0.605053,,,1,,,0
place_EBEAUP,,"EBEAUPIN",,47.464377,-0.624775,,,1,,,0
place_EBLE,,"EBLE",,47.455349,-0.566313,,,1,,,0
place_ECHATS,,"ECHATS",,47.480862,-0.631992,,,1,,,0
place_ECHMA,,"ECHMAN",,47.490204,-0.575725,,,1,,,0
place_ECLATE,,"ECLATERIES",,47.451129,-0.519857,,,1,,,0
place_ECOAND,,"ECOLE ANDARD",,47.457419,-0.398656,,,1,,,0
place_ECOLEB,,"GRANGE AUX BELLES",,47.476690,-0.628462,,,1,,,0
place_ECOP,,"ECOLE DE BAUNE",,47.503090,-0.316197,,,1,,,0
place_ECOSOU,,"ECOLES SOUCELLES",,47.568288,-0.419233,,,1,,,0
place_ECOTIE,,"ECOTIERE",,47.363558,-0.505645,,,1,,,0
place_ECOTS,,"LES ECOTS",,47.475533,-0.695661,,,1,,,0
place_ECPRVI,,"ECOLE PRIMAIRE VILLEVEQUE",,47.560905,-0.421942,,,1,,,0
place_ECUILL,,"ECUILLE",,47.616510,-0.561005,,,1,,,0
place_EGTREL,,"EGLISE TRELAZE",,47.445509,-0.464777,,,1,,,0
place_ELYSEE,,"ELYSEE",,47.473260,-0.584823,,,1,,,0
place_EMPIRE,,"EMPIRE",,47.423016,-0.593071,,,1,,,0
place_EPINAY,,"L'EPINAY",,47.432613,-0.377294,,,1,,,0
place_EPINET,,"L'EPINET",,47.546662,-0.444295,,,1,,,0
place_EPIRE,,"EPIRE",,47.398422,-0.634590,,,1,,,0
place_ERIGNE,,"ERIGNE",,47.400697,-0.530617,,,1,,,0
place_ESA,,"ESA",,47.458745,-0.545135,,,1,,,0
place_ESAIP,,"GEMMETRIE ESAIP",,47.463197,-0.499233,,,1,,,0
place_ESNAUD,,"ESNAUDERIE",,47.593199,-0.549769,,,1,,,0
place_ESPA25,,"ESPACE ANJOU",,47.467160,-0.522606,,,1,,,0
place_ESPACE,,"ESPACE ANJOU",,47.467156,-0.522612,,,1,,,0
place_ESPAJE,,"MAISON DE LA DANSE",,47.488694,-0.585086,,,1,,,0
place_ESPLON,,"ESPACE LONGUENNÉE",,47.540130,-0.672879,,,1,,,0
place_ESPMON,,"ESPERANTO",,47.529460,-0.603702,,,1,,,0
place_ESTAMI,,"ESTAMINET",,47.565745,-0.503782,,,1,,,0
place_ETAS,,"ETAS MONTREUIL",,47.524534,-0.619973,,,1,,,0
place_EUROP5,,"PLACE DE L'EUROPE",,47.486145,-0.528835,,,1,,,0
place_EVREF,,"EVENTARD",,47.496877,-0.514995,,,1,,,0
place_EXPO,,"PARC DES EXPOS",,47.497067,-0.493432,,,1,,,0
place_FACMED,,"FACULTE DE MEDECINE",,47.487300,-0.552291,,,1,,,0
place_FARCY,,"BALZAC",,47.472565,-0.576270,,,1,,,0
place_FENEU,,"EGLISE DE FENEU",,47.569631,-0.594384,,,1,,,0
place_FFAURE,,"FELIX FAURE",,47.485573,-0.547123,,,1,,,0
place_FIEFGE,,"FIEF GENTIL",,47.533299,-0.526098,,,1,,,0
place_FMITTE,,"SAINT SERGE UNIVERSITE",,47.476678,-0.551346,,,1,,,0
place_FONTAI,,"LA FONTAINE FENEU",,47.569652,-0.590444,,,1,,,0
place_FORGES,,"LES FORGES",,47.386371,-0.645197,,,1,,,0
place_FOUDON,,"FOUDON",,47.492281,-0.425289,,,1,,,0
place_FOUILL,,"LE FOUILLOUX",,47.417906,-0.668936,,,1,,,0
place_FOULQU,,"ROCHE FOULQUES",,47.575868,-0.455085,,,1,,,0
place_FOUQUE,,"FOUQUETTERIE",,47.468098,-0.705214,,,1,,,0
place_FOUSSE,,"LES FOUSSEAUX",,47.515800,-0.468595,,,1,,,0
place_FRANCA,,"FRANCAISERIE",,47.521210,-0.465993,,,1,,,0
place_FRATEL,,"FRATELLINI",,47.471506,-0.530860,,,1,,,0
place_FRATER,,"FRATERNITE",,47.490927,-0.562028,,,1,,,0
place_FRAVIL,,"FRANCOIS VILLON COLLEGE",,47.433171,-0.521731,,,1,,,0
place_FREMON,,"FREMOND",,47.485726,-0.561612,,,1,,,0
place_FREMUR,,"FREMUR",,47.458646,-0.558157,,,1,,,0
place_FRESNA,,"FRESNAIES",,47.448443,-0.501023,,,1,,,0
place_FRESNE,,"LE FRESNE",,47.442469,-0.583692,,,1,,,0
place_FRMEIL,,"FRANCIS MEILLAND",,47.448378,-0.546836,,,1,,,0
place_FROMIO,,"FROMIOUX",,47.509520,-0.715932,,,1,,,0
place_FRONDE,,"FRONT DE MAINE",,47.471677,-0.567299,,,1,,,0
place_FUNAUL,,"FUNAULT",,47.534626,-0.456763,,,1,,,0
place_GADIFA,,"GADIFAIX",,47.576090,-0.449459,,,1,,,0
place_GAIGNE,,"GAIGNE",,47.383967,-0.552426,,,1,,,0
place_GALILE,,"GALILEE",,47.456418,-0.667628,,,1,,,0
place_GALLIE,,"GALLIENI",,47.434722,-0.524548,,,1,,,0
place_GARD-D,,"MAIRIE DE SAINT SYLVAIN",,47.519835,-0.471115,,,1,,,0
place_GARDON,,"GARDONNE",,47.521804,-0.471337,,,1,,,0
place_GARDOT,,"GARDOT",,47.468284,-0.533228,,,1,,,0
place_GARE,,"GARES",,47.465043,-0.557666,,,1,,,0
place_GAREBO,,"GARE DE BOUCHEMAINE",,47.416656,-0.614801,,,1,,,0
place_GARECO,,"GARE D'ECOUFLANT",,47.503781,-0.519907,,,1,,,0
place_GARENN,,"GARENNE",,47.478341,-0.576579,,,1,,,0
place_GARTRE,,"GARE DE TRELAZE",,47.452448,-0.470017,,,1,,,0
place_GASNIE,,"GASNIER",,47.485224,-0.571777,,,1,,,0
place_GASPAL,,"GASPALON",,47.453069,-0.507117,,,1,,,0
place_GATS,,"LES GATS",,47.474353,-0.517420,,,1,,,0
place_GAUBBO,,"GAUBOURGS (5B)",,47.447972,-0.572448,,,1,,,0
place_GAUBGS,,"GAUBOURGS",,47.448458,-0.572810,,,1,,,0
place_GAUBOU,,"GAUBOURGS (5A)",,47.448022,-0.572502,,,1,,,0
place_GAUGUI,,"SAINT SYLVAIN CHENE VERT",,47.525230,-0.460878,,,1,,,0
place_GAVIBR,,"GARE VIEUX BRIOLLAY",,47.573053,-0.482675,,,1,,,0
place_GDMAIN,,"GRAND MAINE",,47.467503,-0.593302,,,1,,,0
place_GDPERI,,"GRAND PERIGNE",,47.473858,-0.614662,,,1,,,0
place_GDPIN,,"GRAND PIN",,47.473296,-0.631804,,,1,,,0
place_GDPRES,,"GRAND PRESSOIR",,47.399461,-0.527941,,,1,,,0
place_GENDRI,,"LA GENDRIE",,47.498884,-0.324812,,,1,,,0
place_GENETI,,"GENETIERE",,47.494942,-0.443096,,,1,,,0
place_GENIE,,"GENIE",,47.458066,-0.563868,,,1,,,0
place_GENTRI,,"GENTRIC",,47.447677,-0.485452,,,1,,,0
place_GERICA,,"GERICAULT",,47.459983,-0.524143,,,1,,,0
place_GILARD,,"GILARDIERES",,47.385925,-0.564732,,,1,,,0
place_GILLIE,,"GILLIER",,47.475006,-0.525603,,,1,,,0
place_GIRAR,,"GIRARDEAU",,47.436534,-0.520670,,,1,,,0
place_GIRARD,,"GIRARD",,47.490610,-0.581785,,,1,,,0
place_GIRAUD,,"GIRAUDIERE",,47.521298,-0.435995,,,1,,,0
place_GLAND,,"LA GLAND",,47.403585,-0.658353,,,1,,,0
place_GLOUTI,,"GLOUTIÈRE",,47.508872,-0.644842,,,1,,,0
place_GLYCIN,,"GLYCINES",,47.498921,-0.523881,,,1,,,0
place_GOUROU,,"GOUROUNNIERES",,47.483050,-0.569407,,,1,,,0
place_GPOMPI,,"GEORGES POMPIDOU",,47.491985,-0.592311,,,1,,,0
place_GRACHE,,"GRAND CHEMIN",,47.417518,-0.310543,,,1,,,0
place_GRACLO,,"GRAND CLOS",,47.479757,-0.413580,,,1,,,0
place_GRAMOT,,"GRAND MOTTAY",,47.575763,-0.477575,,,1,,,0
place_GRANCL,,"GRAND CLAYE",,47.387082,-0.538396,,,1,,,0
place_GRANGE,,"LA GRANGE",,47.503890,-0.634634,,,1,,,0
place_GRANMO,,"GRANDMONT",,47.487248,-0.587793,,,1,,,0
place_GRANRU,,"GRANDS RUAUX",,47.565897,-0.555605,,,1,,,0
place_GRAPPE,,"LES GRAPPES",,47.426595,-0.301162,,,1,,,0
place_GRDCHA,,"GRANDS CHAMPS",,47.514689,-0.434125,,,1,,,0
place_GRENOU,,"GRENOUILLE",,47.502982,-0.328230,,,1,,,0
place_GRESIL,,"GRESILLE",,47.459635,-0.605620,,,1,,,0
place_GRIMOR,,"GRIMORELLE",,47.529458,-0.507303,,,1,,,0
place_GROIE1,,"LES GROIES 1",,47.494228,-0.404232,,,1,,,0
place_GROIE2,,"LES GROIES 2",,47.492022,-0.399588,,,1,,,0
place_GROL,,"GROLLIERE",,47.353963,-0.527533,,,1,,,0
place_GRUICH,,"LA GRUICHE",,47.553546,-0.453842,,,1,,,0
place_GUERAN,,"GUERANDAIS",,47.527372,-0.748769,,,1,,,0
place_GUICHA,,"GUICHARD",,47.454988,-0.548626,,,1,,,0
place_GUILLA,,"GUILLAUMIÈRE",,47.533096,-0.671789,,,1,,,0
place_GUILLE,,"GEORGE SAND",,47.433240,-0.519577,,,1,,,0
place_GUINEZ,,"GUINEZERT",,47.461784,-0.631035,,,1,,,0
place_GUIRON,,"GUILLEBOTTE (Avenue)",,47.437350,-0.513495,,,1,,,0
place_HAIJOU,,"HAIE JOULAIN",,47.517534,-0.462697,,,1,,,0
place_HARAS,,"FOCH HARAS",,47.467014,-0.552306,,,1,,,0
place_HARENC,,"HARENCHERES",,47.448722,-0.615652,,,1,,,0
place_HAUBRU,,"HAUTES BRUYÈRES",,47.593457,-0.454372,,,1,,,0
place_HAUCHA,,"HAUTES CHAPELLES",,47.475813,-0.380861,,,1,,,0
place_HAUCOU,,"HAUT COUDRAY",,47.530469,-0.624084,,,1,,,0
place_HAUTRO,,"HAUTE ROCHE BEAUCOUZE",,47.469075,-0.634928,,,1,,,0
place_HBOUCH,,"HAUTS DE BOUCHEMAINE",,47.430277,-0.609454,,,1,,,0
place_HDVSUB,,"HOTEL DE VILLE SUB",,47.471981,-0.546310,,,1,,,0
place_HERM32,,"L'HERMITAGE",,47.584626,-0.417547,,,1,,,0
place_HERMIT,,"HERMITAGE",,47.477760,-0.635614,,,1,,,0
place_HIPPOD,,"HIPPODROME",,47.501058,-0.507623,,,1,,,0
place_HOPITA,,"HOTEL DIEU",,47.479283,-0.560212,,,1,,,0
place_HOPRES,,"HAUT PRESSOIR",,47.453174,-0.538290,,,1,,,0
place_HOSGEM,,"HOPITAL STE GEMMES",,47.422913,-0.560801,,,1,,,0
place_HOTELD,,"HOTEL DE VILLE",,47.401827,-0.536854,,,1,,,0
place_HOTELL,,"HOTELLERIE",,47.489109,-0.519277,,,1,,,0
place_HOUSSA,,"LA HOUSSAYE",,47.586503,-0.456965,,,1,,,0
place_HUETTE,,"HUETTERIE",,47.459102,-0.478638,,,1,,,0
place_HULLET,,"HULLETERIE",,47.465407,-0.720921,,,1,,,0
place_HUTREA,,"HUTREAU",,47.432014,-0.555032,,,1,,,0
place_HYLIER,,"HYLIER",,47.585728,-0.402154,,,1,,,0
place_IMTEC,,"BOUZINAC",,47.503275,-0.509745,,,1,,,0
place_INDUST,,"INDUSTRIE",,47.490254,-0.522933,,,1,,,0
place_INRA,,"INRA",,47.474719,-0.611212,,,1,,,0
place_INTERA,,"AUCHAN",,47.518412,-0.607161,,,1,,,0
place_INTMIL,,"INTERMARCHE",,47.455146,-0.534270,,,1,,,0
place_INTREP,,"INTREPIDE",,47.447288,-0.552203,,,1,,,0
place_IRLAND,,"IRLANDE",,47.523027,-0.604622,,,1,,,0
place_ISORET,,"ISORET",,47.474577,-0.520490,,,1,,,0
place_ITALIE,,"ITALIE",,47.524648,-0.602187,,,1,,,0
place_IUT,,"I U T horaire",,47.480396,-0.602693,,,1,,,0
place_JANEQU,,"Collège JANEQUIN",,47.498106,-0.591404,,,1,,,0
place_JANPAL,,"JAN PALLACH",,47.446054,-0.558888,,,1,,,0
place_JANVRI,,"JANVRIE",,47.504115,-0.699796,,,1,,,0
place_JARBOT,,"JARDIN BOTANIQUE",,47.571714,-0.502658,,,1,,,0
place_JARDFA,,"JARDINS FAMILIAUX",,47.485568,-0.508271,,,1,,,0
place_JAUDET,,"JAUDETTE",,47.463788,-0.490917,,,1,,,0
place_JAURES,,"JEAN JAURES",,47.457507,-0.522993,,,1,,,0
place_JBODIN,,"JEAN BODIN",,47.441747,-0.528196,,,1,,,0
place_JBOUTO,,"JEAN BOUTTON",,47.438734,-0.507305,,,1,,,0
place_JEABOU,,"JEAN BOUIN",,47.458941,-0.532897,,,1,,,0
place_JEAN23,,"JEAN XXIII",,47.448423,-0.563772,,,1,,,0
place_JEANMO,,"JEAN MONNET",,47.465555,-0.601381,,,1,,,0
place_JEANNE,,"RUE JEANNE DE LAVAL",,47.465763,-0.383659,,,1,,,0
place_JEANRO,,"JEAN ROSTAND",,47.434314,-0.513919,,,1,,,0
place_JEANZA,,"Collège JEAN ZAY",,47.529704,-0.607605,,,1,,,0
place_JEDARC,,"Collège JEANNE D'ARC",,47.520406,-0.465592,,,1,,,0
place_JEHUEZ,,"JEAN HUEZ",,47.530856,-0.594328,,,1,,,0
place_JERUSA,,"JERUSALEM",,47.473293,-0.529957,,,1,,,0
place_JFERRY,,"JULES FERRY",,47.466365,-0.498809,,,1,,,0
place_JMOULI,,"JEAN MOULIN",,47.491468,-0.551604,,,1,,,0
place_JOACHI,,"JOACHIM DU BELLAY",,47.476510,-0.547370,,,1,,,0
place_JUICAM,,"CAMPING DE JUIGNE",,47.537353,-0.616868,,,1,,,0
place_JUIGNE,,"JUIGNE BENE",,47.541143,-0.609543,,,1,,,0
place_JUIGNP,,"JUIGNE",,47.539667,-0.615921,,,1,,,0
place_JUINDR,,"JUINDRIE",,47.506131,-0.382537,,,1,,,0
place_JULEVE,,"JULES VERNE",,47.447195,-0.561440,,,1,,,0
place_JUSTIC,,"JUSTICES",,47.453480,-0.526411,,,1,,,0
place_KENNED,,"KENNEDY",,47.492148,-0.577253,,,1,,,0
place_LABARV,,"LA BARRE VILLEVEQUE",,47.552220,-0.429277,,,1,,,0
place_LABROS,,"LA BROSSE",,47.532494,-0.522125,,,1,,,0
place_LABRUY,,"LABRUYERE",,47.476525,-0.573622,,,1,,,0
place_LACDEM,,"ALIENOR D'AQUITAINE",,47.462959,-0.615062,,,1,,,0
place_LACHAU,,"LA CHAUVELAIE",,47.436494,-0.584407,,,1,,,0
place_LACHES,,"LA CHESNAIE",,47.437126,-0.524157,,,1,,,0
place_LACOUD,,"LA COUDRE",,47.460601,-0.710279,,,1,,,0
place_LACROI,,"LACROIX",,47.417871,-0.314439,,,1,,,0
place_LAENEC,,"LAENNEC",,47.539381,-0.618506,,,1,,,0
place_LAFAUV,,"LA FAUVELAIS",,47.452065,-0.512448,,,1,,,0
place_LAMARE,,"LAMARE",,47.468405,-0.465283,,,1,,,0
place_LANDE,,"LANDE",,47.562361,-0.585376,,,1,,,0
place_LANDRE,,"LE LANDREAU",,47.474094,-0.617843,,,1,,,0
place_LANGEV,,"LANGEVINE",,47.478284,-0.691923,,,1,,,0
place_LAPERR,,"PERRAUDIERE",,47.482332,-0.681294,,,1,,,0
place_LAPETI,,"LA PETITE LANDE",,47.451286,-0.431934,,,1,,,0
place_LAPLES,,"LA PLESSE",,47.499482,-0.620410,,,1,,,0
place_LAPOIN,,"LA POINTE",,47.410079,-0.620075,,,1,,,0
place_LAREUX,,"LA REUX",,47.469478,-0.510494,,,1,,,0
place_LAREVE,,"LAREVELLIERE",,47.471266,-0.532729,,,1,,,0
place_LAROCH,,"LA ROCHE",,47.458147,-0.656966,,,1,,,0
place_LASAUL,,"LA SAULAIE",,47.528966,-0.487809,,,1,,,0
place_LAUNAY,,"PORT LAUNAY",,47.520817,-0.521635,,,1,,,0
place_LAVENR,,"LA VENRIE",,47.421341,-0.570237,,,1,,,0
place_LAVOIR,,"LAVOIR",,47.440754,-0.498708,,,1,,,0
place_LAVOIS,,"ESSCA",,47.477251,-0.598944,,,1,,,0
place_LCHATA,,"CHATAIGNERAIE",,47.441284,-0.607783,,,1,,,0
place_LDMNAU,,"LAC DE MAINE (NAUTIQUE)",,47.461140,-0.596208,,,1,,,0
place_LECHEN,,"LE CHENE",,47.420846,-0.576734,,,1,,,0
place_LECLER,,"LECLERC",,47.483038,-0.575877,,,1,,,0
place_LECLOS,,"LE CLOS",,47.424657,-0.428062,,,1,,,0
place_LECORB,,"LE CORBUSIER",,47.484928,-0.631337,,,1,,,0
place_LECSTS,,"MARECHAL LECLERC",,47.518464,-0.466619,,,1,,,0
place_LECUIT,,"LECUIT",,47.489357,-0.562890,,,1,,,0
place_LEFEVR,,"LEFEVRE",,47.443236,-0.488932,,,1,,,0
place_LEGRAS,,"LEGRAS",,47.529216,-0.566931,,,1,,,0
place_LEMERC,,"LEMERCIER",,47.498644,-0.522548,,,1,,,0
place_LEMOIN,,"CONSTANT LEMOINE",,47.471976,-0.541856,,,1,,,0
place_LEOLAG,,"LEO LAGRANGE",,47.447822,-0.510155,,,1,,,0
place_LEPORT,,"LE PORT",,47.421534,-0.573803,,,1,,,0
place_LEPRE,,"LE PRE",,47.515188,-0.585026,,,1,,,0
place_LESGAS,,"LES GAS",,47.514543,-0.659526,,,1,,,0
place_LESMAR,,"HAUTE MARZELLE",,47.342990,-0.529666,,,1,,,0
place_LESRIV,,"LES RIVES",,47.526667,-0.525085,,,1,,,0
place_LESROS,,"LES ROSES",,47.426963,-0.551496,,,1,,,0
place_LESSAR,,"LES ESSARTS",,47.469136,-0.736764,,,1,,,0
place_LETAND,,"LETANDUERE",,47.452931,-0.553242,,,1,,,0
place_LEVESQ,,"LEVESQUE",,47.402231,-0.533959,,,1,,,0
place_LHOIRI,,"L'HOIRIE",,47.467085,-0.618373,,,1,,,0
place_LIC,,"LICES",,47.466956,-0.554398,,,1,,,0
place_LILAS,,"LILAS",,47.459489,-0.663017,,,1,,,0
place_LINOVE,,"LINO VENTURA",,47.447364,-0.529168,,,1,,,0
place_LIZE,,"LIZE",,47.487354,-0.573531,,,1,,,0
place_LIZE39,,"LIZE",,47.487355,-0.573532,,,1,,,0
place_LOMBAR,,"LOMBARDIERES",,47.442552,-0.690509,,,1,,,0
place_LORETT,,"LORETTE",,47.451270,-0.547812,,,1,,,0
place_LORPLM,,"L OREE LE PLESSIS MACE",,47.542607,-0.672370,,,1,,,0
place_LORTIE,,"L'ORTIER",,47.571325,-0.426336,,,1,,,0
place_LOTSCO,,"LOTISSEMENT VILLEVEQUE SCOLAIRE",,47.556518,-0.425555,,,1,,,0
place_LOUET,,"LOUET",,47.412339,-0.523773,,,1,,,0
place_LOUPIN,,"LOUPINOT",,47.424566,-0.552580,,,1,,,0
place_LUTIN,,"LUTIN",,47.475745,-0.534298,,,1,,,0
place_MACE,,"MACE",,47.476827,-0.532235,,,1,,,0
place_MADE,,"MADELEINE",,47.459160,-0.535635,,,1,,,0
place_MAETUD,,"POLYTECH ANGERS",,47.480605,-0.594589,,,1,,,0
place_MA-HDV,,"MAIL",,47.471176,-0.546444,,,1,,,0
place_MAIART,,"MAISON DES ARTS",,47.471776,-0.537594,,,1,,,0
place_MAIENV,,"MAISON DE L'ENVIRONNEMENT",,47.464144,-0.594130,,,1,,,0
place_MAILAC,,"MAISON DU LAC",,47.466048,-0.598342,,,1,,,0
place_MAILLE,,"MAILLÉE",,47.485098,-0.391382,,,1,,,0
place_MAINEU,,"MAISON NEUVE",,47.454173,-0.428100,,,1,,,0
place_MAIRAV,,"MAIRIE D'AVRILLE",,47.504780,-0.590439,,,1,,,0
place_MAIROU,,"MAISON ROUGE",,47.474452,-0.511868,,,1,,,0
place_MAIRSG,,"MAIRIE DE SAINTE GEMMES",,47.422828,-0.556567,,,1,,,0
place_MALAQU,,"MALAQUAIS",,47.444191,-0.490305,,,1,,,0
place_MALBOI,,"MALBOIRE",,47.481818,-0.413984,,,1,,,0
place_MALEMB,,"MALEMBARDIERES",,47.451136,-0.472853,,,1,,,0
place_MALNOU,,"MALNOUE",,47.369053,-0.517203,,,1,,,0
place_MALRAU,,"MALRAUX",,47.457541,-0.473446,,,1,,,0
place_MANSIO,,"MANSION",,47.477083,-0.588139,,,1,,,0
place_MAQUAT,,"MAIL DES QUATRE VENTS",,47.531815,-0.528512,,,1,,,0
place_MAREJU,,"MARECHAL JUIN",,47.449842,-0.568005,,,1,,,0
place_MARIAN,,"MARIANNE",,47.450113,-0.531095,,,1,,,0
place_MARIEC,,"MARIE CURIE",,47.433309,-0.516801,,,1,,,0
place_MARMIT,,"MARMITIERE",,47.466686,-0.490637,,,1,,,0
place_MAROTT,,"MAROTTIERES",,47.536293,-0.568789,,,1,,,0
place_MARSAU,,"MARSAULAIE",,47.415308,-0.343691,,,1,,,0
place_MARTI,,"MARTINIERE",,47.608572,-0.563706,,,1,,,0
place_MASTEL,,"MASTELLE",,47.529407,-0.592236,,,1,,,0
place_MATER,,"CHU - HOPITAL",,47.481246,-0.554231,,,1,,,0
place_MAUFIN,,"MAUFINEE",,47.502372,-0.589046,,,1,,,0
place_MAUPER,,"MAUPERTHUIS",,47.433766,-0.485646,,,1,,,0
place_MBRIAN,,"MARIUS BRIANT",,47.474004,-0.577519,,,1,,,0
place_MEIGNA,,"EGLISE DE LA MEIGNANNE",,47.519517,-0.667780,,,1,,,0
place_MELGRA,,"MELGRANI",,47.477954,-0.592029,,,1,,,0
place_MEMBOU,,"BOURG DE LA MEMBROLLE",,47.558485,-0.669922,,,1,,,0
place_MEMBRO,,"MAIRIE DE LA MEMBROLLE",,47.560794,-0.672927,,,1,,,0
place_MENARD,,"MENARD",,47.445781,-0.493776,,,1,,,0
place_MENDSU,,"MENDES FRANCE",,47.472698,-0.545789,,,1,,,0
place_MERCIE,,"MERCIER",,47.492631,-0.458602,,,1,,,0
place_MERMOZ,,"MERMOZ",,47.451874,-0.566749,,,1,,,0
place_MICHEL,,"MICHELET",,47.463197,-0.544876,,,1,,,0
place_MILLAR,,"MILLARDIERE",,47.513845,-0.473714,,,1,,,0
place_MILLOT,,"MILLOT",,47.457174,-0.533156,,,1,,,0
place_MINDIE,,"MINDIERE",,47.440044,-0.630445,,,1,,,0
place_MIRABE,,"MIRABEAU",,47.459778,-0.549580,,,1,,,0
place_MIRBEA,,"MIRBEAU",,47.488325,-0.510390,,,1,,,0
place_MLYAU,,"MARECHAL LYAUTEY",,47.491772,-0.583756,,,1,,,0
place_MOLIER,,"MOLIERE",,47.474113,-0.555227,,,1,,,0
place_MOLINE,,"MOLINERIE",,47.521440,-0.666808,,,1,,,0
place_MONCEA,,"MONCEAU",,47.472377,-0.389646,,,1,,,0
place_MONGAZ,,"MONGAZON",,47.460833,-0.528013,,,1,,,0
place_MONGEL,,"LA MONGELIERE",,47.586043,-0.412381,,,1,,,0
place_MONNAI,,"MONNAIE",,47.445100,-0.512454,,,1,,,0
place_MONNIE,,"MONNIER",,47.402744,-0.525163,,,1,,,0
place_MONOD,,"MONOD",,47.478855,-0.636510,,,1,,,0
place_MONPLA,,"MONPLAISIR",,47.490660,-0.527202,,,1,,,0
place_MONREP,,"REPUBLIQUE MONTREUIL",,47.528893,-0.611115,,,1,,,0
place_MONTAI,,"MONTAIGNE",,47.470142,-0.531505,,,1,,,0
place_MONTCA,,"MONT CASSIN",,47.447211,-0.569452,,,1,,,0
place_MONTEC,,"MONTECLAIR",,47.464452,-0.604800,,,1,,,0
place_MONTES,,"MONTESQUIEU",,47.473713,-0.579907,,,1,,,0
place_MONTHI,,"MONTHIBERT",,47.444640,-0.473845,,,1,,,0
place_MONTRE,,"CHARLES PEGUY",,47.529962,-0.620296,,,1,,,0
place_MOREL,,"MOREL",,47.474981,-0.607943,,,1,,,0
place_MORELL,,"MORELLERIE",,47.451788,-0.544915,,,1,,,0
place_MORETT,,"MORETTE",,47.604355,-0.560944,,,1,,,0
place_MORICI,,"MORICIERE",,47.485131,-0.357287,,,1,,,0
place_MORLIE,,"MORLIERE",,47.461548,-0.482430,,,1,,,0
place_MOULAN,,"MOULIN DES LANDES",,47.530103,-0.476352,,,1,,,0
place_MOULI,,"MOULINERIE",,47.592379,-0.421811,,,1,,,0
place_MOULIN,,"MOULIN MARCILLE",,47.433761,-0.500572,,,1,,,0
place_MOUNLY,,"MOUNIER LYCEE",,47.490865,-0.526911,,,1,,,0
place_MPLAIS,,"MONPLAISIR LE PLESSIS GRAMMOIRE",,47.499154,-0.429495,,,1,,,0
place_MURIER,,"MURIER",,47.514087,-0.376561,,,1,,,0
place_MURS,,"MURS-ERIGNE",,47.395467,-0.555652,,,1,,,0
place_MUSSET,,"MUSSET",,47.473674,-0.539234,,,1,,,0
place_MUTUAL,,"MUTUALITE",,47.455530,-0.540821,,,1,,,0
place_MVIGNE,,"MARCEL VIGNE",,47.475085,-0.582306,,,1,,,0
place_NARCE,,"LYCEE NARCE",,47.448027,-0.431191,,,1,,,0
place_NDDLAC,,"NOTRE DAME DU LAC",,47.479676,-0.589791,,,1,,,0
place_NOIR,,"CHEMIN NOIR",,47.529493,-0.590919,,,1,,,0
place_NONNAI,,"LES NONNAINS",,47.586844,-0.423560,,,1,,,0
place_NOUELL,,"NOUELLE",,47.544898,-0.669680,,,1,,,0
place_NOYANT,,"NOYANT",,47.563343,-0.545727,,,1,,,0
place_NOYAU,,"NOYAU",,47.512662,-0.365558,,,1,,,0
place_NOZAY,,"NOZAY",,47.487694,-0.532008,,,1,,,0
place_OFFTOU,,"OFFICE DE TOURISME",,47.469103,-0.557913,,,1,,,0
place_OLIVER,,"OLIVERAIE",,47.427276,-0.712641,,,1,,,0
place_OREEBO,,"OREE DES BOIS",,47.508399,-0.378908,,,1,,,0
place_ORGEMO,,"ORGEMONT",,47.447506,-0.543170,,,1,,,0
place_ORMEAU,,"ORMEAUX",,47.479996,-0.519404,,,1,,,0
place_PAGNOL,,"PAGNOL",,47.554189,-0.668633,,,1,,,0
place_PALLUA,,"PALLUAU",,47.425547,-0.335437,,,1,,,0
place_PANERU,,"PABLO NERUDA",,47.445325,-0.541133,,,1,,,0
place_PAPERI,,"PAPERIE",,47.468591,-0.506781,,,1,,,0
place_PAQUE,,"PAQUERETTE",,47.485902,-0.649505,,,1,,,0
place_PAQUER,,"LA PAQUERAIE",,47.481144,-0.410113,,,1,,,0
place_PARC,,"PARC DE LA HAYE",,47.487132,-0.598828,,,1,,,0
place_PARMEN,,"PARMENTIER",,47.453154,-0.518586,,,1,,,0
place_PASGAU,,"PAS GAUTIER",,47.471620,-0.409491,,,1,,,0
place_PASQUE,,"PASQUELERIE",,47.510683,-0.353182,,,1,,,0
place_PATCAN,,"PATIS CANTENAY",,47.540422,-0.582381,,,1,,,0
place_PATINO,,"PAUL BERT",,47.466318,-0.552460,,,1,,,0
place_PATIO,,"PATIO",,47.510769,-0.651765,,,1,,,0
place_PATIS,,"PATIS",,47.464690,-0.706973,,,1,,,0
place_PATTON,,"PATTON",,47.473064,-0.592089,,,1,,,0
place_PATURO,,"PATUREAUX",,47.433915,-0.527964,,,1,,,0
place_PAUGER,,"PAUGER",,47.483044,-0.678071,,,1,,,0
place_PAVILL,,"PAVILLON",,47.465654,-0.621366,,,1,,,0
place_PCOUBE,,"COUBERTIN",,47.462433,-0.532391,,,1,,,0
place_PEGARD,,"PETITE GARDE",,47.508381,-0.588040,,,1,,,0
place_PELEGL,,"EGLISE DE PELLOUAILLES",,47.521553,-0.443992,,,1,,,0
place_PELERI,,"PELLERINIERE",,47.460445,-0.487811,,,1,,,0
place_PELMAI,,"MAIRIE DE PELLOUAILLES",,47.521784,-0.439403,,,1,,,0
place_PELSTA,,"STADE DE PELLOUAILLES",,47.523294,-0.438890,,,1,,,0
place_PELUAU,,"PELUAU",,47.489555,-0.567638,,,1,,,0
place_PERDRI,,"PERDRIAU",,47.439550,-0.487645,,,1,,,0
place_PERR23,,"PERRAUDIERES D 723",,47.438526,-0.698588,,,1,,,0
place_PERR36,,"PERRAUDIERE ZA",,47.436253,-0.700135,,,1,,,0
place_PERRBA,,"PERRAUDIERE BAUNE",,47.508101,-0.346476,,,1,,,0
place_PERRIE,,"PERRIERE",,47.464279,-0.408305,,,1,,,0
place_PERRIN,,"RIVET",,47.436755,-0.516137,,,1,,,0
place_PERUSS,,"PERUSSAIE",,47.465806,-0.595904,,,1,,,0
place_PETANJ,,"PETIT ANJOU",,47.444745,-0.614946,,,1,,,0
place_PETGRA,,"PETITS GRANDCHAMPS",,47.463965,-0.714366,,,1,,,0
place_PETGUI,,"PETIT GUICHARD",,47.526083,-0.479027,,,1,,,0
place_PETIPA,,"PETITES PANNES",,47.488744,-0.569872,,,1,,,0
place_PETLAN,,"PETITE LANDE",,47.552598,-0.581067,,,1,,,0
place_PGAUGU,,"PAUL GAUGUIN",,47.526736,-0.464380,,,1,,,0
place_PICASO,,"PICASSO",,47.452940,-0.522561,,,1,,,0
place_PICASS,,"REPUBLIQUE TRELAZE",,47.450428,-0.504785,,,1,,,0
place_PIECE,,"PIECE DU MOULIN",,47.507375,-0.596801,,,1,,,0
place_PIGEON,,"PIGEON D'OR",,47.469098,-0.389261,,,1,,,0
place_PIGNON,,"PIGNONIERE",,47.487289,-0.498263,,,1,,,0
place_PINEAU,,"PINEAUDIERE",,47.594227,-0.538197,,,1,,,0
place_PINELI,,"PINELIER",,47.523057,-0.743159,,,1,,,0
place_PINSON,,"PINSONS",,47.472534,-0.630219,,,1,,,0
place_PISANI,,"PISANI",,47.482962,-0.548944,,,1,,,0
place_PISJUI,,"PISCINE CAMILLE MUFFAT",,47.534153,-0.616539,,,1,,,0
place_PIVERD,,"PIVERDIERE",,47.437526,-0.609721,,,1,,,0
place_PLACEN,,"PLACE NEY",,47.478458,-0.543317,,,1,,,0
place_PLAFLE,,"PLATEAU FLEURI",,47.529806,-0.597896,,,1,,,0
place_PLDULY,,"PLACE DU LYCEE",,47.466891,-0.544487,,,1,,,0
place_PLEMAC,,"MAIRIE DU PLESSIS MACE",,47.543958,-0.674949,,,1,,,0
place_PLFAYE,,"PLACE LA FAYETTE",,47.461020,-0.554544,,,1,,,0
place_PLGRAM,,"MAIRIE DU PLESSIS GRAMMOIRE",,47.500949,-0.431596,,,1,,,0
place_PLOTIN,,"PLPLOTINIERE",,47.472215,-0.433162,,,1,,,0
place_PLOTTI,,"PLOTTIERE",,47.522350,-0.610787,,,1,,,0
place_PMONPR,,"MONPROFIT",,47.474291,-0.567068,,,1,,,0
place_POINCA,,"POINCARE",,47.500058,-0.589611,,,1,,,0
place_POIREL,,"POIREL",,47.461612,-0.562116,,,1,,,0
place_POISSO,,"COEUR DE MAINE",,47.472397,-0.557113,,,1,,,0
place_POIVRE,,"POIVRE",,47.513543,-0.593081,,,1,,,0
place_POLE49,,"POLE 49",,47.489000,-0.491226,,,1,,,0
place_POLIG,,"POLIGUET",,47.494532,-0.397219,,,1,,,0
place_POMANJ,,"POMANJOU",,47.500217,-0.520780,,,1,,,0
place_POMONE,,"POMONE",,47.481436,-0.574487,,,1,,,0
place_PONBOU,,"PONT DE BOUCHEMAINE",,47.420586,-0.610483,,,1,,,0
place_PONTLA,,"PONT LAITIER",,47.413178,-0.617145,,,1,,,0
place_PONTNO,,"PONT NOIR",,47.463931,-0.562757,,,1,,,0
place_PONTSC,,"MAIRIE DES PONTS DE CE",,47.425373,-0.525524,,,1,,,0
place_POUILL,,"POUILLE",,47.432816,-0.531969,,,1,,,0
place_PREVER,,"PREVERT",,47.487747,-0.597544,,,1,,,0
place_PRIEUR,,"PRIEURE",,47.471880,-0.633610,,,1,,,0
place_PRINCE,,"PRINCE",,47.389542,-0.525806,,,1,,,0
place_PROMEN,,"PROMENIERS",,47.477348,-0.631374,,,1,,,0
place_PROUDH,,"PROUDHON",,47.461407,-0.603496,,,1,,,0
place_PROVIN,,"PROVINS",,47.492545,-0.502234,,,1,,,0
place_PRU_IR,,"PRUILLE irigotaxi",,47.577233,-0.662893,,,1,,,0
place_PRUILL,,"PRUILLE SUB",,47.577112,-0.662774,,,1,,,0
place_PRUNIE,,"PRUNIERS",,47.449187,-0.602613,,,1,,,0
place_PTASSI,,"POLE TASSIGNY",,47.446496,-0.537313,,,1,,,0
place_PTFILL,,"PONT AUX FILLES",,47.512338,-0.515038,,,1,,,0
place_PTJOUR,,"POINT DU JOUR",,47.474265,-0.319771,,,1,,,0
place_PTMONG,,"PETIT MONGAZON",,47.486946,-0.483578,,,1,,,0
place_PTPORT,,"PETIT PORT",,47.425802,-0.609616,,,1,,,0
place_PYRAM2,,"PYRAMIDE",,47.440847,-0.488579,,,1,,,0
place_PYRAMI,,"PYRAMIDE",,47.440661,-0.489257,,,1,,,0
place_QUANTI,,"QUANTINIERE",,47.455215,-0.471620,,,1,,,0
place_QUATRE,,"QUATRE VENTS",,47.497123,-0.420806,,,1,,,0
place_RABELA,,"RABELAIS",,47.461673,-0.546924,,,1,,,0
place_RAINIE,,"RAINIERE",,47.578687,-0.476848,,,1,,,0
place_RALLIE,,"RALLIEMENT",,47.471269,-0.551804,,,1,,,0
place_RAMEAU,,"REPUBLIQUE",,47.471419,-0.554070,,,1,,,0
place_RAMON,,"RAMON",,47.486592,-0.537964,,,1,,,0
place_RANGEA,,"RANGEARDIÈRES",,47.410130,-0.622854,,,1,,,0
place_RAPIDE,,"RAPIDE",,47.502724,-0.514024,,,1,,,0
place_RASPAI,,"RASPAIL",,47.474982,-0.570095,,,1,,,0
place_RAYKOP,,"STADE RAYMOND KOPA",,47.461389,-0.531403,,,1,,,0
place_RBRIOL,,"ROUTE DE BRIOLLAY",,47.486279,-0.532872,,,1,,,0
place_RECLAI,,"RENE CLAIR",,47.536646,-0.621822,,,1,,,0
place_RECULE,,"HAUTE DE RECULEE",,47.485009,-0.552787,,,1,,,0
place_RENARD,,"RENARDIERE",,47.483786,-0.674249,,,1,,,0
place_RENOIR,,"AUGUSTE RENOIR",,47.536036,-0.618481,,,1,,,0
place_RENOU,,"RENOU",,47.437133,-0.486813,,,1,,,0
place_RENSAR,,"RENARDIERES SARRIGNE",,47.493432,-0.389136,,,1,,,0
place_RESID,,"RESIDENCE",,47.572789,-0.486979,,,1,,,0
place_RESTAU,,"RESTAU U",,47.479362,-0.600278,,,1,,,0
place_REUSSI,,"REUSSIERES",,47.569354,-0.564315,,,1,,,0
place_REVERI,,"REVERIES",,47.482056,-0.578153,,,1,,,0
place_RIDERE,,"RIDEREAU",,47.477977,-0.391180,,,1,,,0
place_RIMOUX,,"RIMOUX",,47.475772,-0.356190,,,1,,,0
place_RIOTTE,,"RIOTTEAU",,47.443881,-0.498754,,,1,,,0
place_RIPOLE,,"RIPOLLET",,47.511040,-0.588590,,,1,,,0
place_RMOINE,,"ROCHE AUX MOINES",,47.393868,-0.645824,,,1,,,0
place_ROBIN,,"ROBIN",,47.475885,-0.594421,,,1,,,0
place_ROBINI,,"ROBINIERES",,47.470528,-0.697249,,,1,,,0
place_ROCEPI,,"ROC EPINE",,47.480296,-0.575867,,,1,,,0
place_ROCHE,,"LA ROCHEFOUCAULD",,47.479139,-0.556853,,,1,,,0
place_ROCHET,,"LA ROCHETTE",,47.528665,-0.751136,,,1,,,0
place_ROCHM,,"ROCHE MAROTTE",,47.447395,-0.519230,,,1,,,0
place_ROCHTI,,"ROCHE TINARD",,47.496146,-0.402634,,,1,,,0
place_RODIN,,"RODIN",,47.476013,-0.625709,,,1,,,0
place_ROIPOL,,"ROI DE POLOGNE",,47.469514,-0.561260,,,1,,,0
place_ROMANE,,"ROMANERIE",,47.484550,-0.507923,,,1,,,0
place_RONCER,,"RONCERAY",,47.529805,-0.565109,,,1,,,0
place_RONCIE,,"RONCIERES",,47.435999,-0.513602,,,1,,,0
place_ROSTAN,,"JEAN ROSTAND",,47.448506,-0.501083,,,1,,,0
place_ROUAIR,,"ROUAIRIE",,47.475677,-0.638969,,,1,,,0
place_ROUSS,,"LA ROUSSIERE",,47.574652,-0.650754,,,1,,,0
place_ROUSSI,,"ROUTE DE LA ROUSSIERE",,47.571881,-0.650030,,,1,,,0
place_RTEBOU,,"ROUTE DE BOUCHEMAINE",,47.444931,-0.577238,,,1,,,0
place_RTECHA,,"ROUTE DE CHAMPIGNE",,47.572301,-0.593386,,,1,,,0
place_RTEDAN,,"ROUTE D'ANGERS",,47.425470,-0.556380,,,1,,,0
place_RTEHAU,,"ROUTE DES HAUTES CHAPELLES",,47.476123,-0.381878,,,1,,,0
place_RTEMEI,,"ROUTE DE LA MEIGNANNE",,47.477751,-0.639492,,,1,,,0
place_RTEN4,,"ROUTE N°4",,47.441691,-0.492529,,,1,,,0
place_RTEPLE,,"ROUTE DU PLESSIS",,47.525543,-0.667062,,,1,,,0
place_RTESOR,,"ROUTE DE SORGES",,47.432597,-0.490876,,,1,,,0
place_RTET,,"ROUTE DE L'ETANG",,47.507527,-0.607548,,,1,,,0
place_RTETIE,,"ROUTE DE TIERCE",,47.584120,-0.496852,,,1,,,0
place_RTPARI,,"ROUTE DE PARIS",,47.489670,-0.507738,,,1,,,0
place_RUAU,,"LE RUAU",,47.424283,-0.398659,,,1,,,0
place_RUCOUR,,"RUE COURTE",,47.419724,-0.328763,,,1,,,0
place_RUELLE,,"RUELLES",,47.437379,-0.531141,,,1,,,0
place_RUMEIG,,"LA MEIGNANNE",,47.484198,-0.582415,,,1,,,0
place_SABLE,,"LA SABLE",,47.587050,-0.590479,,,1,,,0
place_SABLON,,"SABLONS",,47.439914,-0.533234,,,1,,,0
place_SAILLE,,"SAILLERIE",,47.486530,-0.506792,,,1,,,0
place_SAINCR,,"SAINTE CROIX",,47.469910,-0.554642,,,1,,,0
place_SALETT,,"SALETTE",,47.512529,-0.586965,,,1,,,0
place_SARMAI,,"MAIRIE DE SARRIGNE",,47.501719,-0.383199,,,1,,,0
place_SARRIG,,"SARRIGNE LES PLANTES",,47.502480,-0.379119,,,1,,,0
place_SAULAI,,"SAULAIS",,47.470234,-0.461709,,,1,,,0
place_SAUMUR,,"SAUMUROISE",,47.457125,-0.532219,,,1,,,0
place_SAVARY,,"SAVARY",,47.473504,-0.542030,,,1,,,0
place_SAVECO,,"SAVENNIERES ECOLE",,47.384632,-0.659344,,,1,,,0
place_SAVELE,,"ECOLE ELEMENTAIRE SAVENNIERES",,47.383316,-0.655803,,,1,,,0
place_SAVENN,,"SAVENNIERES MAIL",,47.383337,-0.655764,,,1,,,0
place_SAVGAR,,"SAVENNIÈRES GARE",,47.381207,-0.655634,,,1,,,0
place_SAVMAT,,"ECOLE MATERNETTE",,47.383084,-0.659670,,,1,,,0
place_SBARTH,,"ST BARTHELEMY",,47.472615,-0.485871,,,1,,,0
place_SBCEZA,,"CEZANNE",,47.469716,-0.491916,,,1,,,0
place_SBPAS,,"ST BARTH PASTEUR",,47.467050,-0.493018,,,1,,,0
place_SBVERD,,"VERDUN",,47.468337,-0.493019,,,1,,,0
place_SCAMUR,,"SCANIA MURS",,47.383721,-0.549022,,,1,,,0
place_SCANIA,,"SCANIA",,47.493214,-0.522132,,,1,,,0
place_SCHWAL,,"SCHWALBACH",,47.503911,-0.602414,,,1,,,0
place_SCHWEI,,"SCHWEITZER",,47.482622,-0.522264,,,1,,,0
place_SCHWZ,,"MIMOSAS",,47.481564,-0.523317,,,1,,,0
place_SECUSO,,"SECURITE SOCIALE",,47.469055,-0.540144,,,1,,,0
place_SEPSON,,"SEPT SONNETTES",,47.485911,-0.514966,,,1,,,0
place_SEURAT,,"CENTRE COMMERCIAL MOLLIERE",,47.460823,-0.617338,,,1,,,0
place_SGEMME,,"SAINTE GEMMES",,47.420252,-0.581709,,,1,,,0
place_SHAKES,,"SHAKESPEARE",,47.461925,-0.612609,,,1,,,0
place_SLEZIN,,"SAINT LEZIN",,47.450354,-0.488254,,,1,,,0
place_SMARUE,,"GRANDE RUE",,47.411082,-0.333201,,,1,,,0
place_SMATHU,,"OFFICE DE TOURISME ST MATHURIN",,47.409700,-0.322045,,,1,,,0
place_SOLAND,,"SOLAND",,47.399530,-0.530870,,,1,,,0
place_SOLELE,,"SOLEIL LEVANT",,47.484762,-0.517173,,,1,,,0
place_SOLIDA,,"LA CITE - CHABADA",,47.488411,-0.536270,,,1,,,0
place_SORGES,,"SORGES",,47.431875,-0.485236,,,1,,,0
place_SOUBEA,,"SOULAIRE BEAUREPAIRE",,47.556480,-0.555603,,,1,,,0
place_SOUBOU,,"BOURG",,47.590733,-0.555291,,,1,,,0
place_SOUCEL,,"SOUCELLES",,47.569798,-0.420452,,,1,,,0
place_SOUECO,,"ECOLE DE SOULAINES",,47.365827,-0.521445,,,1,,,0
place_SOULAI,,"LE TERTRE SOULAINES",,47.362809,-0.522720,,,1,,,0
place_SOULBG,,"SOULAIRE",,47.577423,-0.554214,,,1,,,0
place_SOUMAI,,"SOUCELLES MAIRIE",,47.568087,-0.419143,,,1,,,0
place_SOUSTA,,"SOUCELLES STADE",,47.570122,-0.422021,,,1,,,0
place_SOUZEL,,"PETITE SOUZELLE",,47.549408,-0.564152,,,1,,,0
place_SPOT,,"GERMAINE TILLION",,47.536934,-0.627643,,,1,,,0
place_STABOU,,"ARTAUD",,47.434217,-0.611163,,,1,,,0
place_STADES,,"STADE DE ST BARTHELEMY",,47.461287,-0.492001,,,1,,,0
place_STAUHO,,"FOCH SAINT AUBIN",,47.468350,-0.550538,,,1,,,0
place_STCHAR,,"SAINT CHARLES",,47.475617,-0.566871,,,1,,,0
place_STCLEG,,"EGLISE DE ST CLEMENT",,47.524863,-0.745446,,,1,,,0
place_STEGEM,,"CLOS NEUF STE GEMMES",,47.422468,-0.565588,,,1,,,0
place_STEMAR,,"JOSEPH WRESINSKI",,47.484332,-0.559317,,,1,,,0
place_STEMEL,,"STE MELAINE",,47.370412,-0.496636,,,1,,,0
place_STEXUP,,"ST EXUPERY",,47.467934,-0.536960,,,1,,,0
place_STGILL,,"SAINT GILLES LE PLESSIS GRAMMOIRE",,47.495093,-0.431978,,,1,,,0
place_STJACQ,,"SAINT JACQUES",,47.473655,-0.571923,,,1,,,0
place_STJEMA,,"MAIRIE DE ST JEAN DE LINIERES",,47.458358,-0.658684,,,1,,,0
place_STJOSE,,"SAINT JOSEPH",,47.464847,-0.541189,,,1,,,0
place_STLAUD,,"COLLEGE SAINT LAUD",,47.418272,-0.523470,,,1,,,0
place_STLEGE,,"MAIRIE DE ST LEGER DES BOIS",,47.459117,-0.709970,,,1,,,0
place_STLEMO,,"MOULIN ST LEGER DES BOIS",,47.461553,-0.707990,,,1,,,0
place_STLEON,,"SAINT LEONARD",,47.459607,-0.521518,,,1,,,0
place_STLOUI,,"SAINT LOUIS",,47.487649,-0.586626,,,1,,,0
place_STMABO,,"BOURG DE ST MARTIN",,47.431311,-0.703309,,,1,,,0
place_STMANS,,"BANCHAIS",,47.485646,-0.511835,,,1,,,0
place_STRASB,,"STRASBOURG",,47.457134,-0.554104,,,1,,,0
place_STSE,,"FACULTE",,47.479310,-0.550875,,,1,,,0
place_STSMAI,,"St Sylvain Mairie IrigoTaxi",,47.519835,-0.470917,,,1,,,0
place_STTHER,,"SAINTE THERESE",,47.480728,-0.564276,,,1,,,0
place_TALET,,"TALET",,47.476293,-0.547684,,,1,,,0
place_TANCEL,,"TANCELLERIE",,47.515994,-0.663690,,,1,,,0
place_TARTEL,,"TARTELUSSE",,47.558766,-0.437773,,,1,,,0
place_TAVRC,,"CIMETIERE AVRILLE",,47.506483,-0.590745,,,1,,,0
place_TBOT,,"TERRA BOTANICA",,47.494289,-0.574588,,,1,,,0
place_TEMPLE,,"TEMPLE",,47.489562,-0.428417,,,1,,,0
place_TERNIE,,"TERNIERE",,47.505695,-0.592946,,,1,,,0
place_TERTRE,,"ZI BEAUCOUZE",,47.459992,-0.619322,,,1,,,0
place_THOMAS,,"THOMASSERIE",,47.461751,-0.625301,,,1,,,0
place_TINELL,,"TINELLIÈRE",,47.483952,-0.431600,,,1,,,0
place_TOURAI,,"TOURAINE",,47.539085,-0.435390,,,1,,,0
place_TRECHE,,"CHEVALLERIE 45",,47.446044,-0.458691,,,1,,,0
place_TREL8M,,"TRELAZE 8 MAI",,47.449684,-0.465236,,,1,,,0
place_TRELAZ,,"TRELAZE QUANTINIERE",,47.459854,-0.475552,,,1,,,0
place_TREMAI,,"MAIRIE DE TRELAZE",,47.445574,-0.468718,,,1,,,0
place_TRINIT,,"TRINITE",,47.475234,-0.562172,,,1,,,0
place_TROISP,,"TROIS PAROISSES",,47.441857,-0.534633,,,1,,,0
place_TRREF,,"CIMETIERE DE TRELAZE",,47.446336,-0.462449,,,1,,,0
place_TUFFIE,,"TUFFIÈRE",,47.503176,-0.376654,,,1,,,0
place_TURMIN,,"TURMINIERE",,47.566679,-0.545684,,,1,,,0
place_TURNER,,"TURNER",,47.511413,-0.598779,,,1,,,0
place_UNION,,"UNION SAINT SYLVAIN",,47.519615,-0.475248,,,1,,,0
place_VAILLA,,"VAILLANTE",,47.485299,-0.533461,,,1,,,0
place_VALDEL,,"VAL DE LOIRE",,47.448942,-0.513475,,,1,,,0
place_VALDEM,,"VAL DE MAINE",,47.443069,-0.612734,,,1,,,0
place_VALDOR,,"VAL  D' OR",,47.484620,-0.584664,,,1,,,0
place_VALEO,,"VALEO",,47.501989,-0.516979,,,1,,,0
place_VALHAU,,"VALENTIN HAUY",,47.485877,-0.555852,,,1,,,0
place_VALINI,,"PETITES VALINIERES",,47.507175,-0.445030,,,1,,,0
place_VALLON,,"VALLON",,47.463552,-0.602586,,,1,,,0
place_VARENN,,"VARENNES",,47.565918,-0.504556,,,1,,,0
place_VAUBAN,,"VAUBAN",,47.460100,-0.560826,,,1,,,0
place_VAUDEL,,"VANDELLANT",,47.478154,-0.520944,,,1,,,0
place_VAUGA6,,"VAUGAREAU",,47.483292,-0.526797,,,1,,,0
place_VAURAG,,"VAURAGERE",,47.472822,-0.635471,,,1,,,0
place_VEAUDO,,"VEAU DORE",,47.476220,-0.413499,,,1,,,0
place_VEILLE,,"VEILLEROT",,47.521303,-0.472377,,,1,,,0
place_VENAI,,"VENAISERIE",,47.470927,-0.489648,,,1,,,0
place_VENAIS,,"Collège VENAISERIE",,47.471662,-0.486257,,,1,,,0
place_VERIGN,,"VERIGNE",,47.588240,-0.493593,,,1,,,0
place_VERNEA,,"AURIOL",,47.491218,-0.565025,,,1,,,0
place_VERNTR,,"VERNEAU TRAM",,47.492489,-0.567355,,,1,,,0
place_VERNUS,,"FLORILOIRE (VERNUSSON)",,47.430439,-0.542208,,,1,,,0
place_VICSSY,,"VICTOR HUGO",,47.522123,-0.469592,,,1,,,0
place_VIEMAN,,"VIELLE MAINE",,47.529909,-0.527808,,,1,,,0
place_VIGNES,,"LES VIGNES",,47.408719,-0.626343,,,1,,,0
place_VIHUGO,,"VICTOR HUGO",,47.528218,-0.611759,,,1,,,0
place_VILACC,,"VILLEVEQUE ACCUEIL",,47.559493,-0.424178,,,1,,,0
place_VILCHI,,"VILLECHIEN",,47.462936,-0.519633,,,1,,,0
place_VILECO,,"ECOLE DE VILLEVEQUE",,47.560869,-0.421531,,,1,,,0
place_VILLES,,"VILLESICARD",,47.452445,-0.538362,,,1,,,0
place_VILNEU,,"VILLENEUVE",,47.508326,-0.434881,,,1,,,0
place_VILSAN,,"VILLAGE SANTE",,47.457357,-0.512449,,,1,,,0
place_VILVEQ,,"MAIRIE DE VILLEVEQUE",,47.559407,-0.422138,,,1,,,0
place_VILVLO,,"LOTISSEMENT VILLEVEQUE",,47.556672,-0.424311,,,1,,,0
place_VIRELE,,"VIRELET",,47.478690,-0.340217,,,1,,,0
place_VIVIER,,"VIVIERS",,47.451616,-0.535185,,,1,,,0
place_VOINAY,,"VOISINAY",,47.418916,-0.345422,,,1,,,0
place_VOLNEY,,"VOLNEY",,47.460503,-0.538327,,,1,,,0
place_VXPORT,,"VIEUX PORT",,47.570263,-0.495330,,,1,,,0
place_WALCOU,,"WALCOURT",,47.463355,-0.486098,,,1,,,0
place_WIGAN,,"WIGAN",,47.459429,-0.608133,,,1,,,0
place_ZARTIS,,"Z A  FENEU",,47.579392,-0.591554,,,1,,,0
place_ZICCAD,,"PAUL LANGEVIN",,47.518469,-0.612125,,,1,,,0
