stop_id,stop_code,stop_name,stop_desc,stop_lat,stop_lon,zone_id,stop_url,location_type,parent_station,stop_timezone,wheelchair_boarding
1AARD,5009,"AVRILLE - ARDENNE",,47.511486,-0.596012,,,0,place__ARD,,1
1ACAS,16233,"ACACIAS",,47.503646,-0.586375,,,0,place_1ACA,,1
1BAMA,24604,"BAMAKO",,47.452165,-0.556459,,,0,place__BAM,,1
1BASC,4827,"BASCULE",,47.508686,-0.591659,,,0,place_1BAS,,1
1BMAI,16196,"BERGES DE MAINE",,47.479341,-0.549382,,,0,place__BMA,,1
1BOTA,24128,"TERRA BOTANICA",,47.494224,-0.574617,,,0,place__BOT,,1
1BROY,32629,"BOIS DU ROY",,47.499605,-0.583159,,,0,place_1ROY,,1
1CAPU,29904,"CAPUCINS",,47.486888,-0.555233,,,0,place__CAP,,1
1CECO,519627,"CENTRE DE CONGRES",,47.474152,-0.546083,,,0,place__CCO,,1
1FMBL,11327,"FOCH MAISON BLEUE",,47.468992,-0.549756,,,0,place_CENTRE,,1
1HARA,24652,"FOCH HARAS",,47.466815,-0.552657,,,0,place_1HAR,,1
1HDVA,194430,"HÔTEL DE VILLE",,47.471695,-0.546791,,,0,place__HDV,,1
1HOPA,24731,"CHU - HOPITAL",,47.481385,-0.554158,,,0,place__HOP,,1
1HSAU,3016,"HAUTS DE SAINT AUBIN",,47.492152,-0.560422,,,0,place_1HSA,,1
1JE23,24624,"JEAN XXIII",,47.448607,-0.562932,,,0,place_1JEA,,1
1JMOU,4159,"JEAN MOULIN",,47.490467,-0.552195,,,0,place__MOU,,1
1JVIL,20509,"JEAN VILAR",,47.445072,-0.562326,,,0,place_1VIL,,1
1LAFA,31950,"PLACE LA FAYETTE",,47.460812,-0.554723,,,0,place_1LAF,,1
1LGAR,20910,"LES GARES",,47.464465,-0.555465,,,0,place_GARE,,1
1PMAY,17915,"PLATEAU DE MAYENNE",,47.495710,-0.580051,,,0,place_1MAY,,1
1STGI,23494,"SAINT GILLES",,47.506512,-0.589539,,,0,place_1STG,,1
1STRA,7319,"STRASBOURG",,47.456676,-0.554039,,,0,place_1STR,,1
1STSE,901361,"SAINT SERGE UNIVERSITE",,47.476135,-0.550670,,,0,place__SSE,,1
1VERN,25220,"VERNEAU",,47.492424,-0.567108,,,0,place__VER,,1
2ACAS,12080,"ACACIAS",,47.503703,-0.586270,,,0,place_2ACA,,1
2ANRO,32091,"ANGERS - ROSERAIE",,47.443924,-0.554027,,,0,place__ARO,,1
2BAMA,30251,"BAMAKO",,47.452110,-0.556370,,,0,place__BAM,,1
2BASC,3822,"BASCULE",,47.508781,-0.591492,,,0,place_2BAS,,1
2BMAI,28864,"BERGES DE MAINE",,47.479441,-0.549370,,,0,place__BMA,,1
2BOTA,22213,"TERRA BOTANICA",,47.494268,-0.574759,,,0,place__BOT,,1
2BROY,31784,"BOIS DU ROY",,47.499664,-0.583055,,,0,place_2ROY,,1
2CAPU,3726,"CAPUCINS",,47.486819,-0.555139,,,0,place__CAP,,1
2CECO,363258,"CENTRE DE CONGRES",,47.474266,-0.546100,,,0,place__CCO,,1
2FMBL,3788,"FOCH MAISON BLEUE",,47.468932,-0.549656,,,0,place_CENTRE,,1
2HARA,14426,"FOCH HARAS",,47.466749,-0.552567,,,0,place_2HAR,,1
2HDVA,184082,"HÔTEL DE VILLE",,47.471660,-0.546669,,,0,place__HDV,,1
2HOPA,13445,"CHU - HOPITAL",,47.481321,-0.554055,,,0,place__HOP,,1
2HSAU,29280,"HAUTS DE SAINT AUBIN",,47.492242,-0.560460,,,0,place_2HSA,,1
2JE23,30963,"JEAN XXIII",,47.448552,-0.562844,,,0,place_2JEA,,1
2JMOU,14673,"JEAN MOULIN",,47.490425,-0.552075,,,0,place__MOU,,1
2JVIL,4486,"JEAN VILAR",,47.444880,-0.562255,,,0,place_2VIL,,1
2LAFA,15573,"PLACE LA FAYETTE",,47.460830,-0.554606,,,0,place_2LAF,,1
2LGAR,11515,"LES GARES",,47.464494,-0.555350,,,0,place_GARE,,1
2PMAY,4961,"PLATEAU DE MAYENNE",,47.495760,-0.579940,,,0,place_2MAY,,1
2STGI,31945,"SAINT GILLES",,47.506242,-0.588975,,,0,place_2STG,,1
2STRA,16728,"STRASBOURG",,47.457518,-0.554059,,,0,place_2STR,,1
2STSE,175339,"SAINT SERGE UNIVERSITE",,47.476250,-0.550688,,,0,place__SSE,,1
2VERN,13983,"VERNEAU",,47.492517,-0.567162,,,0,place__VER,,1
AAMIPI,32237,"AMIPI",,47.463699,-0.626626,,,0,place_AAMIPI,,0
AAMIPI-E,28632,"AMIPI",,47.463783,-0.626675,,,0,place_AAMIPI,,0
AARD-7C,562,"AVRILLE - ARDENNE",,47.511027,-0.595431,,,0,place_ARDENN,,1
AARD-7E,27206,"AVRILLE - ARDENNE",,47.512074,-0.596647,,,0,place_ARDENN,,1
ABI,180,"AVICENNE",,47.481296,-0.688410,,,0,place_AVICEN,,0
ABI-E,931,"AVICENNE",,47.481266,-0.688869,,,0,place_AVICEN,,0
ACADEMIE,913399,"ACADEMIE",,47.467432,-0.559145,,,0,place_ACABLA,,0
ACAD-PLA,33737,"ACADEMIE",,47.468430,-0.558686,,,0,place_ACABLA,,0
ADEZIERE,1649,"AVRILLE ADEZIERE",,47.504950,-0.605053,,,0,place_DZIERE,,1
AIGREFOI,805210,"AIGREFOIN",,47.473258,-0.439654,,,0,place_AIGREF,,0
ALEROY,16814,"ANDRE LEROY",,47.464497,-0.548498,,,0,place_ANLERO,,1
ALLARD,27879,"ALLARD",,47.449534,-0.538747,,,0,place_ALLARD,,1
ALLARD-E,5528,"ALLARD",,47.448897,-0.538698,,,0,place_ALLARD,,1
ALLEMA-E,9078,"ALLEMAGNE",,47.527919,-0.599953,,,0,place_ALLEMA,,1
ALLEMAGN,7193,"ALLEMAGNE",,47.526667,-0.601923,,,0,place_ALLEMA,,1
ALLONNEA,16562,"ALLONNEAU",,47.485151,-0.527028,,,0,place_ALLONO,,1
ALLUME-E,6636,"ALLUMETTES",,47.444974,-0.502194,,,0,place_ALLU,,0
ALLUMETT,15447,"ALLUMETTES",,47.445270,-0.502320,,,0,place_ALLU,,0
ALSA-A,610546,"ALSACE",,47.470174,-0.550121,,,0,place_ALSACE,,0
ALSA-R,210951,"ALSACE",,47.470226,-0.550386,,,0,place_ALSACE,,0
ANAFRA-E,882585,"ANATOLE FRANCE",,47.531319,-0.613741,,,0,place_ANAFRA,,1
ANAFRAN,345518,"ANATOLE FRANCE",,47.531085,-0.613723,,,0,place_ANAFRA,,1
ANBRUE-E,648185,"ANDRE BRUEL",,47.526672,-0.468006,,,0,place_ABRUEL,,1
ANBRUEL,491458,"ANDRE BRUEL",,47.526587,-0.468124,,,0,place_ABRUEL,,1
ANDALA-E,587106,"GRAND LAUNAY",,47.461932,-0.387211,,,0,place_ANDLAU,,0
ANDALAUN,544772,"GRAND LAUNAY",,47.461916,-0.387439,,,0,place_ANDLAU,,0
ANDAMA-E,319038,"MAIRIE D'ANDARD",,47.456503,-0.397701,,,0,place_ANDARD,,0
ANDAMAIR,383609,"MAIRIE D'ANDARD",,47.456535,-0.398180,,,0,place_ANDARD,,0
ANDARE-E,503720,"REZEAU",,47.466847,-0.381857,,,0,place_ANDREZ,,0
ANDARESA,293715,"REZEAU",,47.467940,-0.378963,,,0,place_ANDREZ,,0
ANFRANCK,6103,"ANNE FRANK",,47.463559,-0.537773,,,0,place_ANNEFR,,1
ANFRAN-E,7909,"ANNE FRANK",,47.463465,-0.537766,,,0,place_ANNEFR,,1
ANLERO-E,14800,"ANDRE LEROY",,47.464626,-0.549028,,,0,place_ANLERO,,1
ANLEROY,29097,"ANDRE LEROY",,47.464661,-0.548248,,,0,place_ANLERO,,1
ANRO-11C,7919,"ANGERS - ROSERAIE",,47.444954,-0.551545,,,0,place__ARO,,0
ANRO-11E,17931,"ANGERS - ROSERAIE",,47.444875,-0.551926,,,0,place__ARO,,0
ANRO-5A,17458,"ANGERS - ROSERAIE",,47.444012,-0.553918,,,0,place__ARO,,1
ANRO-5B,12151,"ANGERS - ROSERAIE",,47.443776,-0.553672,,,0,place__ARO,,1
APPENT-E,20678,"APPENTIS",,47.445199,-0.546563,,,0,place_APPENT,,1
APPENTIS,30879,"APPENTIS",,47.445518,-0.546286,,,0,place_APPENT,,1
AQUA-A5A,17213,"AQUAVITA - CIRCULAIRE SENS A",,47.493399,-0.565286,,,0,place_AQUAVI,,1
AQUA-A5B,961964,"AQUAVITA - CIRCULAIRE SENS B",,47.493401,-0.565285,,,0,place_AQUAVI,,1
AQUA-D5A,55947,"AQUAVITA - CIRCULAIRE SENS A",,47.493407,-0.565537,,,0,place_AQUAVI,,1
AQUAVITA,52941,"AQUAVITA",,47.493401,-0.565285,,,0,place_AQUAVI,,1
AQUIT11,462834,"ALIENOR D'AQUITAINE",,47.462897,-0.615049,,,0,place_LACDEM,,1
AQUITA-E,14482,"ALIENOR D'AQUITAINE",,47.463023,-0.615073,,,0,place_LACDEM,,1
AQVI-D5B,96211,"AQUAVITA - CIRCULAIRE SENS B",,47.493497,-0.565528,,,0,place_AQUAVI,,1
ARAGO-E,26055,"ARAGON",,47.471732,-0.567569,,,0,place_FRONDE,,0
ARAGON,25304,"ARAGON",,47.471623,-0.567029,,,0,place_FRONDE,,0
ARBORE-E,21951,"ARBORETUM",,47.449385,-0.544430,,,0,place_ARBORE,,1
ARBORETU,32544,"ARBORETUM",,47.449317,-0.544143,,,0,place_ARBORE,,1
ARCAD-E,17259,"ARCADES",,47.507205,-0.516591,,,0,place_ARCADE,,0
ARCADES,24569,"ARCADES",,47.506927,-0.516858,,,0,place_ARCADE,,0
ARCEAU,15889,"ARCEAU",,47.471079,-0.519783,,,0,place_ARCEAU,,1
ARCEAU-E,16444,"ARCEAU",,47.470973,-0.519837,,,0,place_ARCEAU,,1
AROBA-E,31354,"AROBASE",,47.463994,-0.531698,,,0,place_AROBAS,,0
AROBASE,21097,"AROBASE",,47.464591,-0.531546,,,0,place_AROBAS,,0
ARTAUD,22172,"ARTAUD",,47.434046,-0.610954,,,0,place_STABOU,,1
ARTAUD-E,14855,"ARTAUD",,47.433341,-0.610894,,,0,place_STABOU,,1
ATHLET-E,12108,"ATHLETIS",,47.441471,-0.528349,,,0,place_ATHLET,,1
ATHLETIS,30156,"ATHLETIS",,47.441615,-0.527949,,,0,place_ATHLET,,1
ATOLL,21638,"L'ATOLL",,47.483026,-0.632254,,,0,place_ATOL38,,0
ATOLL AR,673486,"BEAUCOUZE L'ATOLL",,47.484232,-0.626432,,,0,place_ATOLL,,1
ATOLLBEA,20041,"BEAUCOUZE L'ATOLL",,47.484232,-0.626432,,,0,place_ATOLL,,1
ATOLL-E,43346,"L'ATOLL",,47.483180,-0.632515,,,0,place_ATOL38,,0
ATSVIL-E,180300,"ECOLE ACCUEIL VILLEVEQUE",,47.559509,-0.424173,,,0,place_VILACC,,0
ATSVILLE,329831,"ECOLE ACCUEIL VILLEVEQUE",,47.559478,-0.424182,,,0,place_VILACC,,0
AUBEPI-E,9385,"AUBEPINE",,47.461562,-0.495899,,,0,place_AUBEPI,,1
AUBEPINE,8536,"AUBEPINE",,47.461705,-0.495984,,,0,place_AUBEPI,,1
AUBERD-E,830731,"AUBERDERIE",,47.537906,-0.478534,,,0,place_AUBERD,,0
AUBERDER,747618,"AUBERDERIE",,47.537885,-0.478691,,,0,place_AUBERD,,0
AUBRIA-E,16914,"AUBRIAIS",,47.515750,-0.667693,,,0,place_AUBRIA,,0
AUBRIAIS,18000,"AUBRIAIS",,47.515797,-0.667935,,,0,place_AUBRIA,,0
AUBRY,7225,"AUBRY",,47.440983,-0.552069,,,0,place_AUBRY,,0
AUBRY-E,48579,"AUBRY",,47.441839,-0.552229,,,0,place_AUBRY,,0
AULNAI-E,172702,"LES AULNAIES",,47.586835,-0.439987,,,0,place_AULNAI,,0
AULNAIES,193602,"LES AULNAIES",,47.586747,-0.439937,,,0,place_AULNAI,,0
AULNERIE,937759,"AULNERIE",,47.587453,-0.492889,,,0,place_AULNER,,0
AURI-A5B,173687,"AURIOL",,47.491289,-0.564935,,,0,place_VERNEA,,1
AUTHIO-E,24408,"AUTHION",,47.431570,-0.528831,,,0,place_AUTHIO,,1
AUTHION,22482,"AUTHION",,47.431515,-0.528398,,,0,place_AUTHIO,,1
AUTRIC-E,30185,"AUTRICHE",,47.522911,-0.609403,,,0,place_AUTRIC,,1
AUTRICH,18326,"AUTRICHE",,47.522984,-0.609961,,,0,place_AUTRIC,,1
AUVERG-E,3123,"AUVERGNE",,47.490197,-0.530055,,,0,place_AUVERG,,1
AUVERGNE,2306,"AUVERGNE",,47.489505,-0.530824,,,0,place_AUVERG,,1
AVALOUP,351192,"AVALOUP",,47.456890,-0.437023,,,0,place_AVALOU,,0
AVENEU-E,3623,"AVENUE DE L'EUROPE",,47.528212,-0.594799,,,0,place_AVEURO,,1
AVENEURO,31525,"AVENUE DE L'EUROPE",,47.527947,-0.595780,,,0,place_AVEURO,,1
BACHEM-E,157642,"BAS CHEMIN",,47.424905,-0.384269,,,0,place_BASCHE,,0
BACHOUAS,294727,"BACHOUASNE",,47.467853,-0.433422,,,0,place_BACHOU,,0
BACHOU-E,602037,"BACHOUASNE",,47.467774,-0.433359,,,0,place_BACHOU,,0
BAHONN-E,1159,"BAHONNEAU",,47.453429,-0.482950,,,0,place_BAHONN,,0
BAHONNEA,26142,"BAHONNEAU",,47.453189,-0.483239,,,0,place_BAHONN,,0
BALANDE,29121,"BASSE LANDE",,47.505124,-0.594820,,,0,place_BALAND,,1
BALAND-E,30198,"BASSE LANDE",,47.505460,-0.595349,,,0,place_BALAND,,1
BALLOUR,23505,"BALLOUR",,47.483243,-0.562464,,,0,place_BALLOU,,0
BANCHA-E,25865,"BANCHAIS",,47.485523,-0.511796,,,0,place_STMANS,,1
BANCHAIS,25147,"BANCHAIS",,47.485298,-0.512160,,,0,place_STMANS,,1
BANCST-E,2573,"BANCHAIS",,47.485819,-0.512468,,,0,place_STMANS,,0
BANCSTMA,20610,"BANCHAIS",,47.486004,-0.512375,,,0,place_STMANS,,0
BARBOT-E,1092,"BARBOTTERIE",,47.400873,-0.525167,,,0,place_BARBOT,,1
BARBOTER,24521,"BARBOTTERIE",,47.400469,-0.524769,,,0,place_BARBOT,,1
BARON AR,22071,"SAINT AUBIN LA SALLE",,47.489696,-0.503569,,,0,place_BARONN,,0
BARON DE,133133,"SAINT AUBIN LA SALLE",,47.489696,-0.503609,,,0,place_BARONN,,0
BARONERI,30230,"SAINT AUBIN LA SALLE",,47.489414,-0.503201,,,0,place_BARONN,,0
BARONN-E,693977,"SAINT AUBIN LA SALLE",,47.489312,-0.504080,,,0,place_BARONN,,1
BARONNER,2861,"SAINT AUBIN LA SALLE",,47.489312,-0.504080,,,0,place_BARONN,,1
BARRA,21480,"BARRA",,47.483717,-0.563930,,,0,place_BARRA,,1
BARRA -E,2442,"BARRA",,47.483823,-0.563729,,,0,place_BARRA,,1
BASCHE-E,884139,"BASSE CHESNAIE",,47.573791,-0.677447,,,0,place_BASSCH,,0
BASCHEM,948490,"BAS CHEMIN",,47.425014,-0.384247,,,0,place_BASCHE,,0
BASCHESN,652997,"BASSE CHESNAIE",,47.573899,-0.677436,,,0,place_BASSCH,,0
BASMOR-E,8169,"BAS MORTIER",,47.515320,-0.474483,,,0,place_BASMOR,,1
BASMORTI,7483,"BAS MORTIER",,47.515371,-0.474625,,,0,place_BASMOR,,1
BAUDON,289578,"BAUDON",,47.539386,-0.579310,,,0,place_BAUDON,,0
BAUDON-E,732813,"BAUDON",,47.539292,-0.579389,,,0,place_BAUDON,,0
BAUDRA-E,11299,"BAUDRAIRIE",,47.437755,-0.507504,,,0,place_GUIRON,,1
BAUDRAI,19950,"BAUDRAIRIE",,47.438037,-0.507103,,,0,place_BAUDRA,,1
BAUNBR-E,58353,"CHÂTEAU DE BRIANÇON",,47.503388,-0.351694,,,0,place_BRIANC,,0
BAUNBRIA,109894,"CHÂTEAU DE BRIANÇON",,47.503481,-0.351515,,,0,place_BRIANC,,0
BAUNCE-E,928925,"BAUNE CENTRE RD 116",,47.499283,-0.318599,,,0,place_BAUN,,0
BAUNCENT,353041,"BAUNE CENTRE RD 116",,47.499427,-0.318602,,,0,place_BAUN,,0
BBRANC-E,27533,"BELLEBRANCHE",,47.528251,-0.528310,,,0,place_BBRANC,,0
BBRANCHE,22762,"BELLEBRANCHE",,47.528127,-0.528311,,,0,place_BBRANC,,0
BEADI-AR,10612,"MAIRIE DE BEAUCOUZE",,47.474621,-0.630088,,,0,place_BEADIM,,0
BEADIM,8391,"MAIRIE DE BEAUCOUZE",,47.474534,-0.630126,,,0,place_BEADIM,,0
BEAUC AR,29830,"BEAUCOUZE HAUTE ROCHE",,47.470313,-0.625168,,,0,place_BEAUCO,,0
BEAUCOUZ,28687,"BEAUCOUZE HAUTE ROCHE",,47.470313,-0.625168,,,0,place_BEAUCO,,0
BEAUFI-E,2771,"BEAUMANOIR",,47.451899,-0.510452,,,0,place_BEAUMA,,0
BEAULI-E,12880,"BEAULIEU",,47.495464,-0.436670,,,0,place_BEAULI,,0
BEAULIEU,4126,"BEAULIEU",,47.495526,-0.437026,,,0,place_BEAULI,,0
BEAUMAN,27618,"BEAUMANOIR",,47.451543,-0.510523,,,0,place_BEAUMA,,0
BEAUM-E,3588,"BEAUMANOIR",,47.451305,-0.510725,,,0,place_BEAUMA,,0
BEAURE-E,6393,"BEAUREPAIRE",,47.474004,-0.559487,,,0,place_BEAURE,,0
BEAUREPA,15816,"BEAUREPAIRE",,47.473985,-0.559654,,,0,place_BEAURE,,0
BEAUVA-E,11101,"BEAUVAL",,47.451682,-0.551264,,,0,place_BEAUVN,,0
BEAUVAL,9892,"BEAUVAL",,47.451403,-0.550429,,,0,place_BEAUVN,,0
BECKE,58108,"BECKER",,47.538835,-0.622005,,,0,place_BECKER,,1
BECK-E,67197,"BECKER",,47.538824,-0.622184,,,0,place_BECKER,,1
BEDAUD-E,5506,"BEDAUDIERE",,47.501358,-0.393321,,,0,place_BEDAUD,,0
BEDAUDIE,26883,"BEDAUDIERE",,47.501333,-0.394999,,,0,place_BEDAUD,,0
BEDIER,16246,"BEDIER",,47.450112,-0.552650,,,0,place_BEDIER,,0
BEDIER-E,14067,"BEDIER",,47.449912,-0.552761,,,0,place_BEDIER,,0
BELAIR,17130,"BEL AIR",,47.529838,-0.606973,,,0,place_BELAIR,,1
BELAIR-E,15243,"BEL AIR",,47.529251,-0.606223,,,0,place_BELAIR,,1
BELFON-E,32395,"MAISON DES ARTS",,47.471701,-0.537442,,,0,place_MAIART,,1
BELFONTA,31709,"MAISON DES ARTS",,47.471851,-0.537747,,,0,place_MAIART,,1
BELLAN-E,32424,"BELLANGERIE",,47.482347,-0.684534,,,0,place_BELLAN,,0
BELLANGE,8582,"BELLANGERIE",,47.482203,-0.684891,,,0,place_BELLAN,,0
BELLCO-E,536209,"CORNE BELLEVUE",,47.473545,-0.346383,,,0,place_BELVUE,,0
BELLCORN,275985,"CORNE BELLEVUE",,47.473610,-0.346381,,,0,place_BELVUE,,0
BELLVUTR,30214,"BELLEVUE",,47.448196,-0.506884,,,0,place_BELLEV,,1
BELNOUE,672416,"BELLENOUE",,47.420600,-0.300998,,,0,place_BELNOU,,0
BELOEI-E,15961,"BEL OEIL",,47.427039,-0.556771,,,0,place_BELOEI,,0
BELOEIL,7658,"BEL OEIL",,47.426686,-0.556662,,,0,place_BELOEI,,0
BELPOU-E,21861,"BELLE POULE",,47.428427,-0.527754,,,0,place_BELLEP,,0
BELPOULE,21306,"BELLE POULE",,47.427888,-0.527154,,,0,place_BELLEP,,0
BELVTR-E,29169,"BELLEVUE",,47.447850,-0.507966,,,0,place_BELLEV,,1
BENE,3624,"MONTREUIL JUIGNE - BENE",,47.541165,-0.609630,,,0,place_JUIGNE,,1
BENE-E,27645,"MONTREUIL JUIGNE - BENE",,47.541120,-0.609456,,,0,place_JUIGNE,,1
BESNARDI,96684,"BESNARDIERE",,47.479730,-0.544374,,,0,place_BESNAR,,0
BEURRI-E,23326,"BEURRIERE",,47.497355,-0.589230,,,0,place_BEURRE,,1
BEURRIER,21726,"BEURRIERE",,47.497569,-0.589541,,,0,place_BEURRE,,1
BIAIS,889875,"BIAIS",,47.584722,-0.539329,,,0,place_BIAIS,,0
BIAIS-E,841213,"BIAIS",,47.584779,-0.539434,,,0,place_BIAIS,,0
BICHO.-E,991,"BICHON",,47.479300,-0.564668,,,0,place_BICHON,,1
BICHON,27019,"BICHON",,47.478730,-0.564193,,,0,place_BICHON,,1
BICHON.,7036,"BICHON",,47.479329,-0.564851,,,0,place_BICHON,,1
BICHON-E,20435,"BICHON",,47.479236,-0.563642,,,0,place_BICHON,,1
BIGOT-E,21778,"BIGOT",,47.482320,-0.560786,,,0,place_BIGOT,,1
BIOP-E,48952,"BIOPOLE",,47.482015,-0.496282,,,0,place_BIOPOL,,1
BIOPOL,13485,"BIOPOLE",,47.482233,-0.496533,,,0,place_BIOPOL,,1
BIRGTEC,17769,"BIRGE",,47.474707,-0.519892,,,0,place_BIRGE,,1
BIRGTE-E,13020,"BIRGE",,47.475222,-0.519773,,,0,place_BIRGE,,1
BLANDEAU,7587,"BLANDEAU",,47.457523,-0.543312,,,0,place_BLANDE,,1
BLANDE-E,2217,"BLANDEAU",,47.457386,-0.543217,,,0,place_BLANDE,,1
BLERIO-E,3197,"BLERIOT",,47.486142,-0.563437,,,0,place_BLERIO,,1
BLERIOT,22166,"BLERIOT",,47.485973,-0.563643,,,0,place_BLERIO,,1
BLITOU-E,8054,"BLITOURNE",,47.527410,-0.434068,,,0,place_BLITOU,,0
BLITOURN,8555,"BLITOURNE",,47.527103,-0.434297,,,0,place_BLITOU,,0
BMAI-9C,14427,"BERGES DE MAINE",,47.478749,-0.549624,,,0,place_BMAINE,,1
BMAI-9E,11244,"BERGES DE MAINE",,47.478509,-0.548904,,,0,place_BMAINE,,1
BMARZE-E,10489,"BASSE MARZELLE",,47.341696,-0.525002,,,0,place_BMAR,,0
BMARZELL,29922,"BASSE MARZELLE",,47.341845,-0.524599,,,0,place_BMAR,,0
BMOTTE,25850,"BELLE MOTTE",,47.531091,-0.516575,,,0,place_BELMOT,,0
BMOTTE-E,11002,"BELLE MOTTE",,47.530981,-0.516524,,,0,place_BELMOT,,0
BODINI-E,298774,"BODINIERE",,47.585439,-0.447124,,,0,place_BODIN,,0
BODINIER,906273,"BODINIERE",,47.585453,-0.447282,,,0,place_BODIN,,0
BOHABRAI,38658,"ROUTE DE BRAIN",,47.421427,-0.399269,,,0,place_BOHBRA,,0
BOHABR-E,377290,"ROUTE DE BRAIN",,47.421471,-0.399114,,,0,place_BOHBRA,,0
BOHACE-E,374732,"CENDREUSE",,47.422276,-0.385158,,,0,place_BOHCEN,,0
BOHACEND,953348,"CENDREUSE",,47.422421,-0.384953,,,0,place_BOHCEN,,0
BOHASA-E,429073,"CHEMIN SALETTE",,47.424605,-0.389309,,,0,place_CHESAL,,0
BOHASALE,300213,"CHEMIN SALETTE",,47.424704,-0.388942,,,0,place_CHESAL,,0
BOIRES,904270,"LES BOIRES",,47.410850,-0.296001,,,0,place_BOIRES,,0
BOISABBE,1559,"BOIS L'ABBE",,47.490304,-0.514225,,,0,place_BOISAB,,0
BOISAB-E,2212,"BOIS L'ABBE",,47.490362,-0.514024,,,0,place_BOISAB,,0
BOISEP-E,617836,"LE BOIS D'EPINARD",,47.474442,-0.330299,,,0,place_BOIEPI,,0
BOISEPI2,142312,"LE BOIS D'EPINARD",,47.474589,-0.330259,,,0,place_BOIEPI,,0
BOISHO-E,277487,"BOIS DE L'HOPITAL",,47.470435,-0.459277,,,0,place_BOISHO,,0
BOISHOPI,778313,"BOIS DE L'HOPITAL",,47.470542,-0.459278,,,0,place_BOISHO,,0
BOISNERI,923534,"LA BOISNERIE",,47.511524,-0.360042,,,0,place_BOISNE,,0
BOISPOUI,393328,"BOIS DE POUILLE",,47.423239,-0.687602,,,0,place_BOIPOU,,0
BOISRA-E,4209,"BOISRAME",,47.478256,-0.584697,,,0,place_BOISRA,,1
BOISRAME,22086,"BOISRAME",,47.478299,-0.584799,,,0,place_BOISRA,,1
BONNERIE,790406,"BONNERIE",,47.522882,-0.446449,,,0,place_BONNER,,0
BONPLA-E,542285,"BONPLAND",,47.514547,-0.590885,,,0,place_BONPLA,,1
BONPLAND,204457,"BONPLAND",,47.514589,-0.589588,,,0,place_BONPLA,,1
BOPON-E,8578,"BOUCHEMAINE PONT",,47.420527,-0.610593,,,0,place_PONBOU,,0
BOPONT,5303,"BOUCHEMAINE PONT",,47.420645,-0.610372,,,0,place_PONBOU,,0
BOREAU,22327,"BOREAU",,47.475261,-0.546194,,,0,place_BOREAU,,1
BOREAU-E,806695,"BOREAU",,47.475299,-0.545847,,,0,place_BOREAU,,0
BOSCH,10110,"BOIS RINIER",,47.476582,-0.497989,,,0,place_BOISRI,,0
BOSCH -E,8650,"BOIS RINIER",,47.476432,-0.497398,,,0,place_BOISRI,,0
BOSQUE-E,9680,"BOSQUET",,47.409779,-0.524831,,,0,place_BOSQUE,,0
BOSQUET,13421,"BOSQUET",,47.410024,-0.524358,,,0,place_BOSQUE,,0
BOUCHE-E,10804,"BOUCHEMAINE CENTRE",,47.421642,-0.610533,,,0,place_BOUCHE,,1
BOUCHEM,9302,"BOUCHEMAINE CENTRE",,47.421757,-0.610429,,,0,place_BOUCHE,,1
BOUGO.-E,10871,"BOURGONNIER",,47.461608,-0.541195,,,0,place_BOURGO,,1
BOUGONNI,27073,"BOURGONNIER",,47.462174,-0.542227,,,0,place_BOURGO,,1
BOULLE,7334,"BOULLE",,47.486717,-0.628579,,,0,place_BOULLE,,1
BOULLE-E,15478,"BOULLE",,47.486505,-0.628691,,,0,place_BOULLE,,1
BOURG,25980,"BOURG",,47.590709,-0.555365,,,0,place_SOUBOU,,0
BOURG-E,14979,"BOURG",,47.590757,-0.555217,,,0,place_SOUBOU,,0
BOURGLAC,28777,"BOURG LA CROIX",,47.450806,-0.523737,,,0,place_BOURGL,,0
BOURGL-E,178374,"BOURG LA CROIX",,47.450730,-0.523816,,,0,place_BOURGL,,0
BOURJOLY,84254,"BOURG JOLY",,47.408872,-0.313344,,,0,place_BOUJOL,,0
BOURRELI,385547,"BOURRELIERE",,47.381943,-0.564033,,,0,place_BOURRE,,0
BOURSE,18560,"BOURSE",,47.442828,-0.495440,,,0,place_BOURSE,,0
BOURSE-E,19507,"BOURSE",,47.442536,-0.495088,,,0,place_BOURSE,,0
BOUTEI-E,117791,"BOUTEILLERIE",,47.479805,-0.432006,,,0,place_BOUTEI,,0
BOUTEILL,602328,"BOUTEILLERIE",,47.479852,-0.432137,,,0,place_BOUTEI,,0
BOUTHO-E,12112,"BOUCHE THOMAS",,47.444509,-0.550411,,,0,place_BOUCTH,,1
BOUTHOMA,29965,"BOUCHE THOMAS",,47.444910,-0.550044,,,0,place_BOUCTH,,1
BOUVET,3637,"BOUVET",,47.562726,-0.675295,,,0,place_BOUVET,,0
BOUVET-E,30358,"BOUVET",,47.563321,-0.675793,,,0,place_BOUVET,,0
BPASTE-E,11261,"BON PASTEUR",,47.470486,-0.569730,,,0,place_BPASTE,,0
BPASTEUR,29906,"BON PASTEUR",,47.470564,-0.568380,,,0,place_BPASTE,,0
BRAI8MAI,789925,"PLACE DU 8 MAI",,47.445994,-0.412015,,,0,place_BRAIN8,,0
BRAI8M-E,562043,"PLACE DU 8 MAI",,47.445926,-0.412117,,,0,place_BRAIN8,,0
BRAIBO-E,348073,"CROIX DE BOIS",,47.449010,-0.424441,,,0,place_CROBOI,,0
BRAIBOIS,551743,"CROIX DE BOIS",,47.449095,-0.424396,,,0,place_CROBOI,,0
BRAICO-E,837119,"CROIX COMBEAU",,47.453695,-0.408351,,,0,place_COMBEA,,0
BRAICOMB,699137,"CROIX COMBEAU",,47.454293,-0.408484,,,0,place_COMBEA,,0
BRAINA-E,364514,"CRÉMAILLÈRE D'ARGENT",,47.465282,-0.433265,,,0,place_ARGENT,,1
BRAINARG,933848,"CRÉMAILLÈRE D'ARGENT",,47.465321,-0.433171,,,0,place_ARGENT,,0
BRAINNAR,776186,"NARCE",,47.448874,-0.429982,,,0,place_NARCE,,0
BRAINN-E,145513,"NARCE",,47.448579,-0.431165,,,0,place_NARCE,,0
BRARDIER,974048,"BRARDIERE",,47.582185,-0.494121,,,0,place_BRARDI,,0
BRASSE-E,25269,"BRASSENS",,47.494884,-0.587235,,,0,place_BRASSE,,1
BRASSENS,351,"BRASSENS",,47.494139,-0.586439,,,0,place_BRASSE,,1
BREMON-E,25430,"GARES BREMONT",,47.465969,-0.559297,,,0,place_GARE,,1
BRETEA-E,89029,"BRETEAU",,47.573645,-0.437244,,,0,place_BRETEA,,0
BRETEAU,22377,"BRETEAU",,47.573784,-0.437338,,,0,place_BRETEA,,0
BRGPAI-E,12036,"BOURG DE PAILLE",,47.474869,-0.624666,,,0,place_BRGPAI,,1
BRGPAILL,10958,"BOURG DE PAILLE",,47.474358,-0.624940,,,0,place_BRGPAI,,1
BRIOLLAY,14848,"MAIRIE DE BRIOLLAY",,47.563657,-0.507705,,,0,place_BRIOLL,,0
BRIOLL-E,24952,"MAIRIE DE BRIOLLAY",,47.563506,-0.507313,,,0,place_BRIOLL,,0
BRISEP-E,3496,"BRISEPOTIERE",,47.479348,-0.527253,,,0,place_BRISEP,,1
BRISEPOT,2222,"BRISEPOTIERE",,47.479537,-0.527283,,,0,place_BRISEP,,1
BROCHONS,294849,"BROCHON",,47.421952,-0.327366,,,0,place_BROCHO,,0
BRULETTE,686700,"LA BRULETTE",,47.579995,-0.440686,,,0,place_BRULET,,0
BSOLEI-E,12061,"BEAU SOLEIL",,47.426713,-0.721350,,,0,place_BSOLEI,,0
BSOLEIL,30366,"BEAU SOLEIL",,47.426576,-0.721257,,,0,place_BSOLEI,,0
BUCHET-E,306514,"BUCHETIERE",,47.559747,-0.428126,,,0,place_BUCHE,,0
BUCHETIE,736317,"BUCHETIERE",,47.559684,-0.428279,,,0,place_BUCHE,,0
BUISBE-E,234869,"LES BUISSONS BELLES",,47.447951,-0.421034,,,0,place_BUIBEL,,0
BUISBELL,40296,"LES BUISSONS BELLES",,47.448036,-0.420989,,,0,place_BUIBEL,,0
BUISSO-E,5587,"TRELAZE BUISSON",,47.441901,-0.483960,,,0,place_BUISSO,,1
BUISSON,3856,"TRELAZE BUISSON",,47.442039,-0.484633,,,0,place_BUISSO,,1
BVALLE-E,29950,"BASSES VALLEES",,47.579055,-0.499698,,,0,place_BVALLE,,0
BVALLEES,31943,"BASSES VALLEES",,47.579336,-0.499741,,,0,place_BVALLE,,0
CALAIS,775835,"CALAIS",,47.461997,-0.432557,,,0,place_CALAIS,,0
CAMELIAS,11696,"CAMELIA",,47.471293,-0.518956,,,0,place_CAME,,1
CAMELI-E,10436,"CAMELIA",,47.471343,-0.519236,,,0,place_CAME,,1
CAMLAC-E,1059,"LAC DE MAINE CAMPING",,47.457702,-0.597228,,,0,place_CAMLAC,,1
CAMLACMA,276,"LAC DE MAINE CAMPING",,47.458118,-0.596992,,,0,place_CAMLAC,,1
CAMPBO-E,13123,"CAMPING DE BOUCHEMAINE",,47.419291,-0.611639,,,0,place_BOUCAM,,1
CAMPBOUC,11882,"CAMPING DE BOUCHEMAINE",,47.419392,-0.611368,,,0,place_BOUCAM,,1
CAMPJU-E,996,"CAMPING DE JUIGNE",,47.537139,-0.616849,,,0,place_JUICAM,,0
CAMPJUIG,7458,"CAMPING DE JUIGNE",,47.537566,-0.616886,,,0,place_JUICAM,,0
CAMUS.05,9583,"CAMUS",,47.485242,-0.575873,,,0,place_CAMUS,,1
CAMUS5-E,20823,"CAMUS",,47.484968,-0.575759,,,0,place_CAMUS,,1
CANTCH-E,833087,"CHAMP FLEURI CANTENAY",,47.537297,-0.571154,,,0,place_CHFLCA,,0
CANTCHFL,735372,"CHAMP FLEURI CANTENAY",,47.537190,-0.571130,,,0,place_CHFLCA,,0
CANTPA-E,936930,"PATIS",,47.540367,-0.582375,,,0,place_PATCAN,,0
CANTPAT,800212,"PATIS",,47.540477,-0.582388,,,0,place_PATCAN,,0
CAPU8-C,32069,"CAPUCINS",,47.487437,-0.554853,,,0,place_CAPUCI,,1
CAPU8-E,21219,"CAPUCINS",,47.487415,-0.554497,,,0,place_CAPUCI,,1
CARCIT-E,8361,"CARREFOUR ST SERGE",,47.487632,-0.543143,,,0,place_CARREF,,1
CARCITR,784,"CARREFOUR ST SERGE",,47.487174,-0.543685,,,0,place_CARREF,,1
CARLIN-E,21252,"LINNE",,47.446481,-0.547785,,,0,place_CARLIN,,0
CARLINNE,20077,"LINNE",,47.446561,-0.547592,,,0,place_CARLIN,,0
CARMET,9979,"JEAN CARMET",,47.400262,-0.543626,,,0,place_CARMET,,1
CARMET-E,16860,"JEAN CARMET",,47.400575,-0.543148,,,0,place_CARMET,,1
CARREA-E,19826,"CARREAUX",,47.512066,-0.471417,,,0,place_CARREA,,0
CARREAUX,25276,"CARREAUX",,47.512565,-0.471944,,,0,place_CARREA,,0
CARRF5B,9318,"CARREFOUR ST SERGE",,47.488084,-0.542511,,,0,place_CARREF,,1
CARRSS-E,6897,"CARREFOUR ST SERGE",,47.488125,-0.543509,,,0,place_CARREF,,1
CATHED-E,992168,"COLLEGE LA CATHEDRALE",,47.484865,-0.540829,,,0,place_CATHED,,0
CATHEDRA,837413,"COLLEGE LA CATHEDRALE",,47.484856,-0.540829,,,0,place_CATHED,,0
CCADEA,5701,"CROIX CADEAU",,47.519948,-0.609453,,,0,place_CCADEA,,0
CCADEA-E,3576,"CROIX CADEAU",,47.520229,-0.609551,,,0,place_CCADEA,,1
CCADE-IR,669054,"CROIX CADEAU",,47.517612,-0.608019,,,0,place_CCADEA,,1
CCBGPAI,953694,"BOURG DE PAILLE",,47.473272,-0.623241,,,0,place_BGPAIL,,1
CCHEMI-E,30919,"CROIX DE CHEMINEE",,47.467526,-0.502874,,,0,place_CCHEMI,,0
CCHEMINE,30005,"CROIX DE CHEMINEE",,47.467762,-0.503228,,,0,place_CCHEMI,,0
CCICHA-E,24375,"CCI",,47.468365,-0.557633,,,0,place_CHACOM,,1
CCOMME-E,10530,"CENTRE COMMERCIAL",,47.437747,-0.526761,,,0,place_CCOMME,,1
CCOMMERC,3146,"CENTRE COMMERCIAL",,47.437849,-0.526928,,,0,place_CCOMME,,1
CEEQUE-E,15981,"CENTRE EQUESTRE",,47.459571,-0.484562,,,0,place_CENEQU,,1
CEEQUEST,14512,"CENTRE EQUESTRE",,47.459580,-0.484705,,,0,place_CENEQU,,1
CESARG-E,23705,"GEOFFRAY",,47.458387,-0.545494,,,0,place_CESGEO,,1
CESARGEO,66,"GEOFFRAY",,47.458645,-0.545934,,,0,place_CESGEO,,1
CEZAN-E,16647,"CEZANNE",,47.469635,-0.491936,,,0,place_SBCEZA,,1
CEZANNE,20935,"CEZANNE",,47.469797,-0.491896,,,0,place_SBCEZA,,1
CFPA,13734,"AFPA",,47.471545,-0.523350,,,0,place_AFPA,,1
CFPA-E,14322,"AFPA",,47.471460,-0.522837,,,0,place_AFPA,,1
CHABLA-E,10390,"CHAMPS BLANCS",,47.517352,-0.475216,,,0,place_CHBLAN,,1
CHABLANC,9247,"CHAMPS BLANCS",,47.517229,-0.475263,,,0,place_CHBLAN,,1
CHACOMME,27218,"CCI",,47.468177,-0.557820,,,0,place_CHACOM,,1
CHADL-E,8514,"CHAMPDOLLANT",,47.556395,-0.561424,,,0,place_CHAMPD,,0
CHAERI-E,8276,"CHATEAU ERIGNE",,47.406391,-0.526012,,,0,place_CHAERI,,0
CHAERIGN,7264,"CHATEAU ERIGNE",,47.406476,-0.525753,,,0,place_CHAERI,,0
CHAGAL-E,675868,"CHAGALL",,47.560152,-0.677582,,,0,place_CHAGAL,,1
CHAGALL,409509,"CHAGALL",,47.560054,-0.677517,,,0,place_CHAGAL,,0
CHALOU-E,16972,"CHALOUERE",,47.481943,-0.536031,,,0,place_CHAL-E,,1
CHALOUER,16319,"CHALOUERE",,47.481349,-0.536775,,,0,place_CHAL-E,,1
CHAMBO-E,22463,"CHAMPBOUREAU",,47.396673,-0.636717,,,0,place_CHAMPB,,0
CHAMBOUR,5924,"CHAMPBOUREAU",,47.396552,-0.636717,,,0,place_CHAMPB,,0
CHAMF-E,48621,"CHAMPFLEUR",,47.482646,-0.503814,,,0,place_CHAMFL,,0
CHAMFL,15711,"CHAMPFLEUR",,47.483024,-0.504334,,,0,place_CHAMFL,,0
CHAMPD,30452,"CHAMPDOLLANT",,47.556722,-0.561433,,,0,place_CHAMPD,,0
CHANSONN,654132,"ROUTE DE LA CHANSONNIERE",,47.583595,-0.483435,,,0,place_CHANSO,,0
CHANT AR,769363,"BOUCHEMAINE CHANTOURTEAU",,47.406140,-0.623126,,,0,place_CHANTO,,0
CHANT-AR,21417,"BOUCHEMAINE CHANTOURTEAU",,47.406118,-0.623107,,,0,place_CHANTO,,0
CHANTE-E,25568,"CHANTERIE",,47.470885,-0.628087,,,0,place_CHANTE,,0
CHANTERI,24849,"CHANTERIE",,47.470943,-0.628019,,,0,place_CHANTE,,0
CHANTOUR,20438,"BOUCHEMAINE CHANTOURTEAU",,47.406116,-0.623126,,,0,place_CHANTO,,0
CHANZY,13887,"CHANZY",,47.460151,-0.557471,,,0,place_CHANZY,,1
CHANZY-E,32089,"CHANZY",,47.460053,-0.557665,,,0,place_CHANZY,,1
CHAPE,651257,"CHAPELLES",,47.468730,-0.382931,,,0,place_CHAPEL,,1
CHAPEL-E,5633,"CHAPELLES",,47.468647,-0.382936,,,0,place_CHAPEL,,0
CHAPELLE,21227,"CHAPELLES",,47.468731,-0.382975,,,0,place_CHAPEL,,0
CHARNA-E,5036,"CHARNASSERIE",,47.491866,-0.556585,,,0,place_CHARNA,,1
CHARNASS,30008,"CHARNASSERIE",,47.491573,-0.557802,,,0,place_CHARNA,,1
CHARRUAU,994566,"CHARRUAU",,47.372821,-0.509244,,,0,place_CHARRU,,0
CHARRU-E,758914,"CHARRUAU",,47.372710,-0.509213,,,0,place_CHARRU,,0
CHATA-E,657686,"CHATAIGNIER",,47.545858,-0.649886,,,0,place_CHATAI,,0
CHATAI,372480,"CHATAIGNIER",,47.545682,-0.649983,,,0,place_CHATAI,,0
CHATELAI,23220,"CHATELAIN",,47.482844,-0.514735,,,0,place_CHATEL,,0
CHATEL-E,24167,"CHATELAIN",,47.483169,-0.514182,,,0,place_CHATEL,,1
CHATENAY,2146,"CHATENAY",,47.482730,-0.521178,,,0,place_CHATEN,,1
CHATEN-E,2767,"CHATENAY",,47.482569,-0.521180,,,0,place_CHATEN,,1
CHAU-E,268887,"LA CHAUVELAIE",,47.436456,-0.584441,,,0,place_LACHAU,,0
CHAUMI-E,12609,"CHAUMIERES",,47.524440,-0.523314,,,0,place_CHAUMI,,0
CHAUMIER,12643,"CHAUMIERES",,47.524116,-0.523314,,,0,place_CHAUMI,,0
CHAUVE,60539,"LA CHAUVELAIE",,47.436533,-0.584372,,,0,place_LACHAU,,0
CHBBEI-E,22139,"CHAPELLE BELLE BEILLE",,47.475463,-0.585993,,,0,place_CHBBEI,,1
CHBBEILL,21074,"CHAPELLE BELLE BEILLE",,47.475812,-0.586120,,,0,place_CHBBEI,,1
CHDARR,39215,"CHATEAU",,47.468772,-0.559284,,,0,place_CHAANG,,1
CHDARR-E,31053,"CHATEAU",,47.469273,-0.560032,,,0,place_CHAANG,,1
CHEMARDE,692812,"AVRILLE - ARDENNE",,47.512466,-0.596402,,,0,place_ARDENN,,0
CHEMAR-E,792762,"AVRILLE - ARDENNE",,47.512196,-0.596042,,,0,place_ARDENN,,0
CHEMIPRE,433167,"CHEMIN DU PRE",,47.467247,-0.635591,,,0,place_CHEPRE,,0
CHEMON-E,395248,"CHEMIN DE MONGAZON",,47.482446,-0.481567,,,0,place_CHEMON,,0
CHEMONGA,921683,"CHEMIN DE MONGAZON",,47.484508,-0.484922,,,0,place_CHEMON,,0
CHENAIE,543770,"LA CHENAIE",,47.547969,-0.474294,,,0,place_CHENAI,,0
CHENAI-E,145360,"LA CHENAIE",,47.548042,-0.474411,,,0,place_CHENAI,,0
CHENERON,980954,"CHENE ROND",,47.395940,-0.536420,,,0,place_CHENRD,,0
CHENOI-E,903926,"CHEMIN NOIR",,47.529576,-0.591020,,,0,place_NOIR,,1
CHENOIR,74282,"CHEMIN NOIR",,47.529411,-0.590817,,,0,place_NOIR,,1
CHENR-E,284422,"CHENE ROND",,47.395843,-0.536236,,,0,place_CHENRD,,0
CHEPRE-E,667046,"CHEMIN DU PRE",,47.467193,-0.635483,,,0,place_CHEPRE,,0
CHESNA-E,28622,"LA CHESNAIE",,47.437021,-0.524003,,,0,place_LACHES,,1
CHESNAIE,21405,"LA CHESNAIE",,47.437232,-0.524311,,,0,place_LACHES,,1
CHESPR-E,658925,"LA CHESNAIE PRUILLE",,47.566127,-0.677766,,,0,place_CHEPRU,,1
CHESPRUI,244895,"LA CHESNAIE PRUILLE",,47.566050,-0.678228,,,0,place_CHEPRU,,0
CHEVA-E,28793,"CHEVALLERIE",,47.554744,-0.660964,,,0,place_CHEVAL,,0
CHEVAL,3108,"CHEVALLERIE",,47.553862,-0.659708,,,0,place_CHEVAL,,0
CHEVRI-E,7832,"CHEVRIERE",,47.423899,-0.609243,,,0,place_CHEVRI,,0
CHEVRIER,7016,"CHEVRIERE",,47.423908,-0.609100,,,0,place_CHEVRI,,0
CHEVRO-E,440202,"LYCEE CHEVROLLIER",,47.453911,-0.557476,,,0,place_CHEVRO,,0
CHEVROLL,858266,"LYCEE CHEVROLLIER",,47.453824,-0.557309,,,0,place_CHEVRO,,0
CHMART-E,2510,"CHAMP DES MARTYRS",,47.490060,-0.582625,,,0,place_CHMART,,1
CHMARTYR,1237,"CHAMP DES MARTYRS",,47.489855,-0.583086,,,0,place_CHMART,,1
CHOUTEAU,22022,"CHOUTEAU",,47.446256,-0.496856,,,0,place_CHOUTE,,1
CHOUTE-E,22740,"CHOUTEAU",,47.446118,-0.496704,,,0,place_CHOUTE,,1
CHPEGU-E,362903,"CHARLES PEGUY",,47.530013,-0.620308,,,0,place_MONTRE,,1
CHPEGUY,855516,"CHARLES PEGUY",,47.529912,-0.620285,,,0,place_MONTRE,,1
CHVERT,23049,"CHENE VERT",,47.470251,-0.514898,,,0,place_CHVERT,,1
CHVERT-E,24160,"CHENE VERT",,47.470421,-0.516632,,,0,place_CHVERT,,1
CIAVRI-E,25684,"CIMETIERE D'AVRILLE",,47.506563,-0.590418,,,0,place_TAVRC,,1
CIAVRILL,24835,"CIMETIERE D'AVRILLE",,47.506404,-0.591072,,,0,place_TAVRC,,1
CIEST.-E,23398,"FRATELLINI",,47.471506,-0.530860,,,0,place_FRATEL,,0
CIMEPO-E,26172,"CIMETIERE DES PONTS DE CE",,47.434322,-0.530206,,,0,place_CIPONT,,1
CIMEPONT,25421,"CIMETIERE DES PONTS DE CE",,47.434273,-0.529602,,,0,place_CIPONT,,1
CIMETI-E,7431,"CIMETIERE DE L'EST",,47.471236,-0.527727,,,0,place_CIMETI,,1
CIMETIER,6354,"CIMETIERE DE L'EST",,47.471369,-0.527739,,,0,place_CIMETI,,1
CIMETR-E,32029,"CIMETIERE DE TRELAZE",,47.446271,-0.462300,,,0,place_TRREF,,1
CIMTRELA,31082,"CIMETIERE DE TRELAZE",,47.446401,-0.462597,,,0,place_TRREF,,1
CIOUES-E,18204,"CIMETIERE DE L'OUEST",,47.479344,-0.570747,,,0,place_CIMOUE,,1
CIOUEST,16897,"CIMETIERE DE L'OUEST",,47.478481,-0.569684,,,0,place_CIMOUE,,1
CITESO-A,68887,"MARCHE MONPLAISIR",,47.488508,-0.535663,,,0,place_SOLIDA,,1
CITESO-E,3002,"LA CITE CHABADA",,47.488508,-0.535663,,,0,place_SOLIDA,,1
CITESOLI,61161,"LA CITE CHABADA",,47.488444,-0.536219,,,0,place_SOLIDA,,1
CITEUN-E,27788,"CITE UNIVERSITAIRE",,47.478676,-0.598176,,,0,place_CITEUN,,1
CITEUNIV,30394,"CITE UNIVERSITAIRE",,47.478879,-0.597880,,,0,place_CITEUN,,1
CITRON-E,4467,"CITRONNELLE",,47.479321,-0.633746,,,0,place_CITRON,,1
CITRONNL,1586,"CITRONNELLE",,47.479422,-0.634007,,,0,place_CITRON,,1
CLAIE,3838,"CLAIE",,47.460763,-0.627112,,,0,place_CLAIE,,0
CLAIE -E,4327,"CLAIE",,47.460717,-0.627038,,,0,place_CLAIE,,0
CLART -E,32378,"CLARTE",,47.454009,-0.481335,,,0,place_CLAR,,0
CLARTE,31594,"CLARTE",,47.454108,-0.481349,,,0,place_CLAR,,0
CLAUDE-E,14882,"CLAUDEL",,47.449984,-0.566807,,,0,place_CLAUDE,,1
CLAUDEL,14,"CLAUDEL",,47.449507,-0.566251,,,0,place_CLAUDE,,1
CLAVERIE,32135,"CLAVERIE",,47.486652,-0.504501,,,0,place_CLAVER,,1
CLEMEG-E,24799,"EGLISE DE SAINT CLEMENT",,47.524913,-0.745279,,,0,place_STCLEG,,0
CLEMEGLI,6423,"EGLISE DE SAINT CLEMENT",,47.524816,-0.745610,,,0,place_STCLEG,,0
CLEMOI-E,26438,"CONSTANT LEMOINE",,47.471959,-0.541621,,,0,place_LEMOIN,,1
CLEMOINE,54191,"CONSTANT LEMOINE",,47.471994,-0.542090,,,0,place_LEMOIN,,1
CLIANJ-E,11590,"PABLO NERUDA",,47.445325,-0.541133,,,0,place_PANERU,,0
CLINAN-E,508501,"CLINIQUE DE L'ANJOU",,47.444458,-0.539046,,,0,place_CLINIQ,,1
CLINANJO,21645,"CLINIQUE DE L'ANJOU",,47.444430,-0.539116,,,0,place_CLINIQ,,1
CLINIQ-E,27786,"CLINIQUE SAINT DIDIER",,47.485338,-0.587427,,,0,place_CLINST,,1
CLINIQUE,26512,"CLINIQUE SAINT DIDIER",,47.485155,-0.587077,,,0,place_CLINST,,1
CLODOR-E,17722,"CLOS DOREAU",,47.496336,-0.425149,,,0,place_DOREAU,,0
CLODOREA,31214,"CLOS DOREAU",,47.496241,-0.425249,,,0,place_DOREAU,,0
CLOS9-E,19966,"CLOS NEUF",,47.422519,-0.565596,,,0,place_STEGEM,,1
CLOSDU-E,700600,"CLOS DU VAU",,47.577140,-0.458142,,,0,place_CLOSDU,,1
CLOSDUVA,900000,"CLOS DU VAU",,47.577249,-0.458131,,,0,place_CLOSDU,,1
CLOSNEUF,23457,"CLOS NEUF",,47.422402,-0.565475,,,0,place_STEGEM,,1
CLOSVI-E,20765,"CLOS DE LA VIGNE",,47.441641,-0.611258,,,0,place_CLVIGN,,1
CLOSVIGN,17761,"CLOS DE LA VIGNE",,47.441596,-0.611293,,,0,place_CLVIGN,,1
CLOTEA-E,834642,"CLOTEAU",,47.507532,-0.408483,,,0,place_CLOTEA,,0
CLOTEAU,466331,"CLOTEAU",,47.507515,-0.408623,,,0,place_CLOTEA,,0
CLOUET,17775,"CLOUET",,47.480228,-0.566247,,,0,place_CLOUET,,1
CLOUET-E,6874,"CLOUET",,47.480639,-0.566362,,,0,place_CLOUET,,1
CNFPT,22225,"CNFPT",,47.472384,-0.599778,,,0,place_CNFPT,,1
CNFPT-E,32156,"CNFPT",,47.472284,-0.599999,,,0,place_CNFPT,,1
COINTR-E,6267,"COINTREAU",,47.476442,-0.507312,,,0,place_COINTR,,1
COINTREA,9457,"COINTREAU",,47.476369,-0.507643,,,0,place_COINTR,,1
COLOMB,74257,"COLOMBIER",,47.482464,-0.490580,,,0,place_COLOMB,,1
COLOM-E,64617,"COLOMBIER",,47.482555,-0.490383,,,0,place_COLOMB,,1
COLTRIAR,23328,"COLTRIE",,47.485318,-0.675836,,,0,place_COLTRI,,0
COLTRIE,31143,"COLTRIE",,47.485471,-0.676010,,,0,place_COLTRI,,0
CORMI-E,8668,"CORMIERS",,47.458047,-0.515383,,,0,place_CORMIE,,1
CORMIER,24903,"CORMIERS",,47.458362,-0.515926,,,0,place_CORMIE,,1
CORNBA-E,932372,"CORNE BASCULE",,47.471600,-0.340920,,,0,place_CORBAS,,0
CORNBASC,78942,"CORNE BASCULE",,47.471633,-0.341125,,,0,place_CORBAS,,0
CORNCR-E,434360,"LA CROIX VERTE",,47.474011,-0.354852,,,0,place_CORNCR,,0
CORNCROI,650527,"LA CROIX VERTE",,47.474177,-0.354730,,,0,place_CORNCR,,0
CORNMA-E,575617,"CORNE MAIRIE",,47.470907,-0.350614,,,0,place_CORNMA,,0
CORNMAIR,544320,"CORNE MAIRIE",,47.470999,-0.350606,,,0,place_CORNMA,,0
CORZE,21390,"CORZE",,47.556503,-0.389456,,,0,place_CORZE,,0
COSSE,12393,"COSSE",,47.438224,-0.553215,,,0,place_COSSE,,0
COSSE-E,7690,"COSSE",,47.438250,-0.553447,,,0,place_COSSE,,0
COSSIERE,976646,"COSSIERES",,47.526059,-0.448212,,,0,place_COSSIE,,0
COTTAGE,4531,"COTTAGE",,47.494799,-0.515339,,,0,place_COTTAG,,1
COTTAG-E,5184,"COTTAGE",,47.494589,-0.515134,,,0,place_COTTAG,,1
COUBER-E,70,"JEAN BOUIN SCOLAIRE",,47.458882,-0.532832,,,0,place_JEABOU,,0
COUBERTI,6822,"JEAN BOUIN SCOLAIRE",,47.459178,-0.533371,,,0,place_JEABOU,,0
COUREAU,617489,"COUREAU",,47.420394,-0.368765,,,0,place_COUREA,,0
COUTARDI,310689,"COUTARDIERE",,47.466250,-0.408317,,,0,place_COUTAR,,0
COUTAR-E,268168,"COUTARDIERE",,47.466232,-0.408159,,,0,place_COUTAR,,0
CRBEAU,21760,"CROIX DE BEAUVAIS",,47.611882,-0.585323,,,0,place_CBEAUV,,0
CRBEAU-E,12387,"CROIX DE BEAUVAIS",,47.612736,-0.584940,,,0,place_CBEAUV,,0
CRBLANCH,20575,"CROIX BLANCHE",,47.480857,-0.517178,,,0,place_CRBLAN,,0
CRBLAN-E,21587,"CROIX BLANCHE",,47.480756,-0.517145,,,0,place_CRBLAN,,0
CRESSO-E,191441,"CRESSONNIERE",,47.474326,-0.492340,,,0,place_CRESSO,,0
CRESSONN,407603,"CRESSONNIERE",,47.474331,-0.492068,,,0,place_CRESSO,,0
CRETAUDI,809228,"CRETAUDIERE",,47.475625,-0.366224,,,0,place_CRETAU,,0
CRETAU-E,747849,"CRETAUDIERE",,47.475550,-0.366299,,,0,place_CRETAU,,0
CRFRUX,29507,"CROIX DES FRUX",,47.503213,-0.690965,,,0,place_CRFRUX,,0
CRFRUX-E,10392,"CROIX DES FRUX",,47.503348,-0.690967,,,0,place_CRFRUX,,0
CROISE-E,29354,"CROISETTE",,47.450963,-0.600432,,,0,place_CROIST,,1
CROISETT,28700,"CROISETTE",,47.450933,-0.600121,,,0,place_CROIST,,1
CROIXV-E,28430,"ROUTE DE BOUCHEMAINE",,47.444974,-0.577209,,,0,place_RTEBOU,,0
CROIXVER,27646,"ROUTE DE BOUCHEMAINE",,47.444890,-0.577266,,,0,place_RTEBOU,,0
CRVESC-E,485025,"LA CROIX VERTE Scolaire",,47.474234,-0.354750,,,0,place_CORSCO,,0
CRVESCOL,697945,"LA CROIX VERTE Scolaire",,47.474296,-0.354762,,,0,place_CORSCO,,0
CSARTHE,114,"CROIX DE SARTHE",,47.539950,-0.570310,,,0,place_CSARTH,,0
CSARTH-E,2380,"CROIX DE SARTHE",,47.540117,-0.569923,,,0,place_CSARTH,,0
CTRETR-E,6456,"CENTRE DE TRI",,47.452567,-0.570792,,,0,place_CDETRI,,1
CTRETRI,2211,"CENTRE DE TRI",,47.452235,-0.570336,,,0,place_CDETRI,,1
DAGUCH-E,539974,"DAGUENIERE LE CHENE",,47.420101,-0.445472,,,0,place_DAGCHE,,0
DAGUCHEN,564365,"DAGUENIERE LE CHENE",,47.420293,-0.446046,,,0,place_DAGCHE,,0
DAGUEG-E,732652,"DAGUENIERE PLACE DE L'EGLISE",,47.419300,-0.436781,,,0,place_DAGEGL,,0
DAGUEGLI,114161,"DAGUENIERE PLACE DE L'EGLISE",,47.419408,-0.436785,,,0,place_DAGEGL,,0
DAGUER-E,8833,"DOJO DAGUERRE",,47.446498,-0.506870,,,0,place_DOJO,,0
DAGUERRE,2483,"DOJO DAGUERRE",,47.446639,-0.506314,,,0,place_DOJO,,0
DAGUVA-E,863802,"DAGUENIERE VAL D'AUTHION",,47.419284,-0.428108,,,0,place_DAGUVA,,0
DAGUVALA,929816,"DAGUENIERE VAL D'AUTHION",,47.419390,-0.428294,,,0,place_DAGUVA,,0
DANEMA,11354,"DANEMARK",,47.527855,-0.597551,,,0,place_DANEMA,,1
DANEMA-E,5563,"DANEMARK",,47.527721,-0.597817,,,0,place_DANEMA,,1
DANGELIN,79140,"DANIEL GELIN",,47.445119,-0.526964,,,0,place_DANIEL,,1
DARWIN,13304,"DARWIN",,47.473837,-0.604198,,,0,place_DARWIN,,0
DARWIN-E,12749,"DARWIN",,47.474255,-0.605230,,,0,place_DARWIN,,0
DAUTEL,22320,"DAUTEL",,47.442820,-0.483688,,,0,place_DAUTEL,,0
DAUTEL-E,26667,"DAUTEL",,47.442871,-0.483276,,,0,place_DAUTEL,,0
DAVIERES,463464,"DAVIERES",,47.583186,-0.477864,,,0,place_DAVIER,,0
DEBEAU-E,9943,"DE BEAUVOIR",,47.529041,-0.614687,,,0,place_DEBOVE,,0
DEBEAUVO,20135,"DE BEAUVOIR",,47.528946,-0.614638,,,0,place_DEBOVE,,0
DEBU22-E,12625,"DEBUSSY",,47.487187,-0.515386,,,0,place_DEBUSS,,0
DEBU31-E,9638,"COLLEGE DEBUSSY",,47.488492,-0.515920,,,0,place_DEBULY,,0
DEBUSS22,13474,"DEBUSSY",,47.487634,-0.515812,,,0,place_DEBUSS,,0
DEBUSS31,24570,"COLLÈGE DEBUSSY",,47.488500,-0.515913,,,0,place_DEBULY,,0
DEBUSS-E,612,"DEBUSSY",,47.488420,-0.515830,,,0,place_DEBUSS,,0
DEBUSSY,32335,"DEBUSSY",,47.488310,-0.516113,,,0,place_DEBUSS,,0
DEGAUL-E,17571,"DE GAULLE",,47.453109,-0.478216,,,0,place_DEGAUL,,0
DEGAULLE,30690,"DE GAULLE",,47.453360,-0.478316,,,0,place_DEGAUL,,0
DELACR-E,3905,"DELACROIX",,47.454898,-0.528833,,,0,place_DELACR,,1
DELACROI,5132,"DELACROIX",,47.454901,-0.528627,,,0,place_DELACR,,1
DELATA-E,29323,"DE LATTRE",,47.453187,-0.541377,,,0,place_DELATT,,1
DELATR-E,25487,"DE LATTRE",,47.452337,-0.541852,,,0,place_DLATTR,,1
DELATTAS,27760,"DE LATTRE",,47.453364,-0.541200,,,0,place_DELATT,,1
DELATTRE,10046,"DE LATTRE",,47.452609,-0.541648,,,0,place_DLATTR,,1
DELESC-E,22260,"DELESCLUZE",,47.466048,-0.605045,,,0,place_DELESC,,1
DELESCL,27348,"DELESCLUZE",,47.466083,-0.604892,,,0,place_DELESC,,1
DESCAZ-E,25148,"DESCAZEAUX",,47.476786,-0.566113,,,0,place_DSCAZE,,1
DESCAZEA,5599,"DESCAZEAUX",,47.477432,-0.565945,,,0,place_DSCAZE,,1
DESER-E,60376,"DE SERRE",,47.477763,-0.614765,,,0,place_DESERR,,0
DESERRE,25513,"DE SERRE",,47.477786,-0.615330,,,0,place_DESERR,,0
DESJARDI,18446,"DESJARDINS",,47.477948,-0.530275,,,0,place_DESJAR,,1
DESJAR-E,8104,"DESJARDINS",,47.477862,-0.530132,,,0,place_DESJAR,,1
DESMAZ,15401,"DESMAZIERES",,47.462542,-0.534526,,,0,place_DESMAZ,,1
DESMAZ-E,15428,"DESMAZIERES",,47.462647,-0.535002,,,0,place_DESMAZ,,1
DEUVAL,17151,"DEUX VALLÉES",,47.568307,-0.498900,,,0,place_DEUVAL,,0
DEUVAL-E,575510,"DEUX VALLÉES",,47.568263,-0.498745,,,0,place_DEUVAL,,0
DEUXCR,12239,"DAGUENET",,47.474811,-0.528444,,,0,place_DXCRX,,1
DEUXCR-E,19319,"DAGUENET",,47.474758,-0.527973,,,0,place_DXCRX,,1
DEZIE AR,19310,"AVRILLE ADEZIERE",,47.504950,-0.605053,,,0,place_DZIERE,,1
DGELIN-E,81163,"DANIEL GELIN",,47.445152,-0.527125,,,0,place_DANIEL,,1
DIONNEAU,28948,"DIONNEAU",,47.438788,-0.530002,,,0,place_DIONNE,,1
DIONNE-E,9126,"DIONNEAU",,47.438786,-0.530247,,,0,place_DIONNE,,1
DIONNI-E,28803,"DIONNIERE",,47.543693,-0.485056,,,0,place_DIONNI,,0
DIONNIER,4977,"DIONNIERE",,47.543693,-0.485056,,,0,place_DIONNI,,0
DIX8JU-E,22297,"18 JUIN MONTREUIL",,47.529605,-0.618041,,,0,place_DIX8JU,,0
DIX8JUI,2997,"18 JUIN MONTREUIL",,47.529528,-0.618128,,,0,place_DIX8JU,,0
DOLANTIN,225971,"DOLANTINES",,47.527976,-0.445027,,,0,place_DOLANT,,0
DOMETA-E,21363,"ROUTE DE L'ETANG",,47.507896,-0.607365,,,0,place_RTET,,0
DOMETANG,19431,"ROUTE DE L'ETANG",,47.507159,-0.607730,,,0,place_RTET,,0
DOMVAL,15402,"DOMAINE DU VAL",,47.537042,-0.625043,,,0,place_DOMVAL,,1
DOMVAL-E,366109,"DOMAINE DU VAL",,47.536901,-0.624975,,,0,place_DOMVAL,,0
DOMVATER,266184,"DOMAINE DU VAL",,47.536656,-0.624831,,,0,place_DOMVAL,,1
DOUBLO-E,692318,"LA DOUBLONNIERE",,47.403721,-0.668764,,,0,place_DOUBLO,,0
DOUBLONI,448269,"LA DOUBLONNIERE",,47.403753,-0.668843,,,0,place_DOUBLO,,0
DOYENNE,24995,"DOYENNE",,47.490608,-0.532581,,,0,place_DOYENN,,1
DOYENN-E,10951,"DOYENNE",,47.490584,-0.532206,,,0,place_DOYENN,,0
DSBA-ENT,11739,"ZI EST",,47.475329,-0.495720,,,0,place_COTRA,,1
DSBAR-CV,2951,"ZI EST",,47.475293,-0.495581,,,0,place_COTRA,,1
DSCASUB,661157,"DESCAZEAUX SUB",,47.476912,-0.567311,,,0,place_DSCAZE,,0
DSCAZEAU,24278,"DESCAZEAUX",,47.476515,-0.566920,,,0,place_DSCAZE,,1
DSCAZE-E,25257,"DESCAZEAUX",,47.476226,-0.565892,,,0,place_DSCAZE,,1
DUBE,11379,"DUBE",,47.415859,-0.523038,,,0,place_DUBE,,1
DUBE  -E,12097,"DUBE",,47.415415,-0.523316,,,0,place_DUBE,,1
DUBELLAY,3061,"DU BELLAY",,47.492473,-0.513379,,,0,place_DUBELL,,0
DUBELL-E,3812,"DU BELLAY",,47.492176,-0.513243,,,0,place_DUBELL,,0
DUMESN-E,5561,"DUMESNIL",,47.473815,-0.566934,,,0,place_DUMESN,,1
DUMESNIL,4581,"DUMESNIL",,47.473659,-0.567300,,,0,place_DUMESN,,1
DUMNACUS,23298,"DUMNACUS",,47.486392,-0.592077,,,0,place_DUMNAC,,0
DUNAN,19081,"DUNANT",,47.483529,-0.525567,,,0,place_DUNLEP,,1
DUNAN-E,14642,"DUNANT",,47.483348,-0.525681,,,0,place_DUNLEP,,1
DUREL1-E,749082,"DURELLERIES 1",,47.428923,-0.641367,,,0,place_DURELL,,0
DUREL2-E,631634,"DURELLERIES 2",,47.431119,-0.641869,,,0,place_DUREL2,,0
DURELLE1,530721,"DURELLERIES 1",,47.428933,-0.641212,,,0,place_DURELL,,0
DURELLE2,489663,"DURELLERIES 2",,47.431100,-0.641738,,,0,place_DUREL2,,0
DURVIL-E,22678,"DUMONT D'URVILLE",,47.445056,-0.557235,,,0,place_DUMONT,,1
DURVILLE,28495,"DUMONT D'URVILLE",,47.445205,-0.557177,,,0,place_DUMONT,,1
EBEAUP-E,9811,"EBEAUPIN",,47.464415,-0.624810,,,0,place_EBEAUP,,0
EBEAUPIN,22853,"EBEAUPIN",,47.464338,-0.624740,,,0,place_EBEAUP,,0
EBLE,18451,"EBLE",,47.455317,-0.566319,,,0,place_EBLE,,1
EBLE  -E,18302,"EBLE",,47.455383,-0.566308,,,0,place_EBLE,,1
ECHATS,24869,"ECHATS",,47.480706,-0.632067,,,0,place_ECHATS,,1
ECHATS-E,30592,"ECHATS",,47.481018,-0.631917,,,0,place_ECHATS,,1
ECHMA-E,30440,"ECHMAN",,47.490228,-0.575637,,,0,place_ECHMA,,1
ECHMAN,20511,"ECHMAN",,47.490175,-0.575806,,,0,place_ECHMA,,1
ECLATE-E,15952,"ECLATERIES",,47.451073,-0.519982,,,0,place_ECLATE,,1
ECLATERI,28347,"ECLATERIES",,47.451199,-0.519733,,,0,place_ECLATE,,1
ECOANDAR,621938,"ECOLE ANDARD",,47.457398,-0.398655,,,0,place_ECOAND,,0
ECOAND-E,792101,"ECOLE ANDARD",,47.457399,-0.398642,,,0,place_ECOAND,,0
ECOBAU-A,548823,"ECOLE DE BAUNE",,47.503086,-0.316172,,,0,place_ECOP,,0
ECOBAU-D,366802,"ECOLE DE BAUNE",,47.503093,-0.316221,,,0,place_ECOP,,0
ECOTIE-E,24531,"ECOTIERE",,47.363601,-0.505626,,,0,place_ECOTIE,,0
ECOTIERE,28731,"ECOTIERE",,47.363515,-0.505663,,,0,place_ECOTIE,,0
ECPRVI,986309,"ECOLE PRIMAIRE VILLEVEQUE",,47.559407,-0.424159,,,0,place_ECPRVI,,0
ECUIL-E,3439,"ECUILLE",,47.616502,-0.560938,,,0,place_ECUILL,,0
ECUILL,3505,"ECUILLE",,47.616506,-0.560967,,,0,place_ECUILL,,0
EDF,6009,"BERGERIE",,47.487553,-0.471236,,,0,place_BERGER,,0
EDF-E,16211,"BERGERIE",,47.487435,-0.471269,,,0,place_BERGER,,0
EGLTRE-E,1318,"EGLISE DE TRELAZE",,47.445443,-0.464612,,,0,place_EGTREL,,1
EGLTRELA,208,"EGLISE DE TRELAZE",,47.445574,-0.464941,,,0,place_EGTREL,,1
ELYSEE,18951,"ÉLYSÉE",,47.473576,-0.584617,,,0,place_ELYSEE,,0
ELYSEE-E,20767,"ÉLYSÉE",,47.473672,-0.584940,,,0,place_ELYSEE,,0
EMPIRE,15565,"EMPIRE",,47.423122,-0.592835,,,0,place_EMPIRE,,0
EMPIRE-E,15466,"EMPIRE",,47.422909,-0.593306,,,0,place_EMPIRE,,0
EPINAY,158422,"L'EPINAY",,47.432629,-0.377339,,,0,place_EPINAY,,0
EPINAY-E,729440,"L'EPINAY",,47.432609,-0.377248,,,0,place_EPINAY,,0
EPINET,160711,"L'EPINET",,47.546583,-0.444356,,,0,place_EPINET,,1
EPIRE,27409,"EPIRE",,47.398581,-0.634615,,,0,place_EPIRE,,0
EPIRE-E,7152,"EPIRE",,47.398263,-0.634565,,,0,place_EPIRE,,0
ERIGNE,30529,"ERIGNE",,47.400795,-0.530711,,,0,place_ERIGNE,,1
ERIGNE-E,31182,"ERIGNE",,47.400598,-0.530511,,,0,place_ERIGNE,,1
ESA,6717,"ESA",,47.458532,-0.544915,,,0,place_ESA,,1
ESA-E,19309,"ESA",,47.458957,-0.545354,,,0,place_ESA,,1
ESATBE-E,611355,"ESAT LES BEJONNIERES",,47.481344,-0.510196,,,0,place_BEJONI,,0
ESATBEJO,241355,"ESAT LES BEJONNIERES",,47.481282,-0.510115,,,0,place_BEJONI,,0
ESCALAV,28477,"ESSCA",,47.477266,-0.598718,,,0,place_LAVOIS,,0
ESNAUD-E,91404,"L'ESNAUDERIE",,47.593146,-0.549715,,,0,place_ESNAUD,,0
ESNAUDER,511998,"L'ESNAUDERIE",,47.593253,-0.549823,,,0,place_ESNAUD,,0
ESPAC AR,9410,"ESPACE ANJOU",,47.468151,-0.526070,,,0,place_ESPACE,,0
ESPACE5A,8609,"ESPACE ANJOU",,47.467390,-0.520326,,,0,place_ESPA25,,1
ESPACE5B,6519,"ESPACE ANJOU",,47.467591,-0.520484,,,0,place_ESPA25,,1
ESPACEAN,18251,"ESPACE ANJOU",,47.468151,-0.526070,,,0,place_ESPACE,,0
ESPAJEUN,28726,"MAISON DE LA DANSE",,47.488869,-0.584872,,,0,place_ESPAJE,,1
ESPJEU-E,1080,"MAISON DE LA DANSE",,47.488519,-0.585299,,,0,place_ESPAJE,,1
ESPLO-E,17768,"ESPACE LONGUENEE",,47.540160,-0.672764,,,0,place_ESPLON,,0
ESP-LON,16227,"ESPACE LONGUENEE",,47.540102,-0.672993,,,0,place_ESPLON,,0
ESPMON-E,34314,"ESPERANTO",,47.529501,-0.603745,,,0,place_ESPMON,,1
ESPMONTR,15922,"ESPERANTO",,47.529419,-0.603658,,,0,place_ESPMON,,1
ESSCA,86,"ESSCA",,47.477236,-0.599170,,,0,place_LAVOIS,,0
ESTAMI-E,673452,"ESTAMINET",,47.565754,-0.503686,,,0,place_ESTAMI,,0
ESTAMINE,579551,"ESTAMINET",,47.565738,-0.503877,,,0,place_ESTAMI,,0
ETAS,32370,"ETAS",,47.524535,-0.619971,,,0,place_ETAS,,0
ETAS-E,15715,"ETAS",,47.524532,-0.619972,,,0,place_ETAS,,0
EVENT AR,7408,"EVENTARD",,47.496879,-0.514992,,,0,place_EVREF,,1
EVENTA T,8776,"EVENTARD",,47.496874,-0.514998,,,0,place_EVREF,,1
FACUL-SS,7400,"FACULTE",,47.479322,-0.550989,,,0,place_STSE,,1
FACULT-E,30202,"FACULTE",,47.479299,-0.550760,,,0,place_STSE,,1
FARCY,29337,"BALZAC",,47.472440,-0.576239,,,0,place_FARCY,,0
FARCY-E,1432,"BALZAC",,47.472692,-0.576301,,,0,place_FARCY,,0
FENCH-E,955983,"CHAMP FLEURI FENEU",,47.567766,-0.579312,,,0,place_CHFLFE,,0
FENCHFL,815465,"CHAMP FLEURI FENEU",,47.567914,-0.579310,,,0,place_CHFLFE,,0
FENEU AR,768933,"EGLISE DE FENEU",,47.569634,-0.594409,,,0,place_FENEU,,0
FENEU ZA,370674,"ZA FENEU ARRIVEE",,47.579173,-0.591395,,,0,place_ZARTIS,,0
FENEUBUS,36001,"EGLISE DE FENEU",,47.569634,-0.594409,,,0,place_FENEU,,1
FFAURE,28159,"FELIX FAURE",,47.485660,-0.547307,,,0,place_FFAURE,,0
FFAURE-E,13088,"FELIX FAURE",,47.485487,-0.546939,,,0,place_FFAURE,,0
FIEFGENT,22382,"FIEF GENTIL",,47.533317,-0.526159,,,0,place_FIEFGE,,0
FIEGEN-E,24053,"FIEF GENTIL",,47.533279,-0.526050,,,0,place_FIEFGE,,0
FMEDEC-E,2930,"FACULTE DE MEDECINE",,47.487390,-0.552561,,,0,place_FACMED,,1
FMEDECIN,10330,"FACULTE DE MEDECINE",,47.487180,-0.552285,,,0,place_FACMED,,1
FMITTE-E,8589,"SAINT SERGE UNIVERSITE",,47.476581,-0.551174,,,0,place_FMITTE,,1
FMITTERA,6467,"SAINT SERGE UNIVERSITE",,47.476642,-0.551968,,,0,place_FMITTE,,1
FOCH .-E,11393,"FOCH MAISON BLEUE",,47.469101,-0.549773,,,0,place_CENTRE,,1
FO-LOR-R,170,"FOCH MAISON BLEUE",,47.469676,-0.548989,,,0,place_CENTRE,,1
FONTAI-E,26615,"LA FONTAINE FENEU",,47.569663,-0.590349,,,0,place_FONTAI,,0
FONTAINE,15253,"LA FONTAINE FENEU",,47.569642,-0.590538,,,0,place_FONTAI,,0
FORGES,3128,"LES FORGES",,47.386438,-0.645165,,,0,place_FORGES,,0
FORGES-E,1732,"LES FORGES",,47.386304,-0.645229,,,0,place_FORGES,,0
FOUDON,534977,"FOUDON",,47.492288,-0.425368,,,0,place_FOUDON,,0
FOUDON-E,375171,"FOUDON",,47.492273,-0.425210,,,0,place_FOUDON,,0
FOUILLOU,322999,"LE FOUILLOUX",,47.417866,-0.668967,,,0,place_FOUILL,,0
FOUQUE-E,28861,"FOUQUETTERIE",,47.468274,-0.705249,,,0,place_FOUQUE,,0
FOUQUETT,1497,"FOUQUETTERIE",,47.467921,-0.705179,,,0,place_FOUQUE,,0
FOUSSEAU,24740,"FOUSSEAUX",,47.515771,-0.468508,,,0,place_FOUSSE,,0
FOUSSE-E,25785,"FOUSSEAUX",,47.515807,-0.468631,,,0,place_FOUSSE,,0
FRANCA-E,27417,"FRANCAISERIE",,47.521484,-0.466227,,,0,place_FRANCA,,1
FRANCAIS,26601,"FRANCAISERIE",,47.520938,-0.465769,,,0,place_FRANCA,,1
FRANVI-E,13502,"VILLON",,47.433643,-0.522855,,,0,place_FRAVIL,,1
FRANVILL,15918,"VILLON",,47.433724,-0.523151,,,0,place_FRAVIL,,1
FRATE-E,71441,"FRATERNITE",,47.490839,-0.561683,,,0,place_FRATER,,1
FRATER,49164,"FRATERNITE",,47.491015,-0.562371,,,0,place_FRATER,,1
FRAVISCO,697386,"COLLEGE FRANCOIS VILLON",,47.433030,-0.521968,,,0,place_FRAVIL,,0
FRAVIS-E,882303,"COLLEGE FRANCOIS VILLON",,47.433313,-0.521492,,,0,place_FRAVIL,,0
FRCEVE-E,15734,"CEVERT",,47.446567,-0.543635,,,0,place_CEVERT,,1
FRCEVERT,14982,"CEVERT",,47.446348,-0.544187,,,0,place_CEVERT,,1
FREMON-E,5869,"FREMOND",,47.485763,-0.561906,,,0,place_FREMON,,0
FREMONT,22950,"FREMOND",,47.485690,-0.561319,,,0,place_FREMON,,0
FREMUR,18974,"FREMUR",,47.458710,-0.558224,,,0,place_FREMUR,,1
FREMUR-E,19151,"FREMUR",,47.458583,-0.558089,,,0,place_FREMUR,,1
FRESNA-E,27900,"FRESNAIES",,47.448234,-0.500900,,,0,place_FRESNA,,1
FRESNAIE,23491,"FRESNAIES",,47.448053,-0.500483,,,0,place_FRESNA,,1
FRESN-AR,29527,"LE FRESNE",,47.442411,-0.583651,,,0,place_FRESNE,,0
FRESNE,32041,"LE FRESNE",,47.442418,-0.583650,,,0,place_FRESNE,,0
FRMEIL-E,27294,"MEILLAND",,47.448620,-0.546355,,,0,place_FRMEIL,,1
FRMEILLA,24551,"MEILLAND",,47.447971,-0.546519,,,0,place_FRMEIL,,0
FROMIO-E,678514,"LE FROMIOUX",,47.509993,-0.716868,,,0,place_FROMIO,,0
FROMIOUX,159425,"LE FROMIOUX",,47.509048,-0.714996,,,0,place_FROMIO,,0
FRONDEMA,22268,"FRONT DE MAINE",,47.472514,-0.566587,,,0,place_FRONDE,,1
FRONDM-E,13856,"FRONT DE MAINE",,47.472260,-0.566167,,,0,place_FRONDE,,1
FUNAUL-E,211846,"FUNAULT",,47.534658,-0.456759,,,0,place_FUNAUL,,0
FUNAULT,368680,"FUNAULT",,47.534595,-0.456771,,,0,place_FUNAUL,,0
GADIFA-E,226554,"GADIFAIX",,47.576028,-0.449430,,,0,place_GADIFA,,0
GADIFAIX,789137,"GADIFAIX",,47.576137,-0.449491,,,0,place_GADIFA,,0
GAIGNE,150305,"GAIGNE",,47.384000,-0.552437,,,0,place_GAIGNE,,0
GALIL-E,9088,"GALILEE",,47.456596,-0.667856,,,0,place_GALILE,,0
GALILEE,17363,"GALILEE",,47.456345,-0.667239,,,0,place_GALILE,,0
GALLIE,3438,"GALLIENI",,47.434617,-0.524572,,,0,place_GALLIE,,1
GALLI-E,4908,"GALLIENI",,47.434827,-0.524525,,,0,place_GALLIE,,1
GALLIENI,16963,"PLACE DE L'EUROPE",,47.486083,-0.528696,,,0,place_EUROP5,,0
GARD-D-E,735774,"MAIRIE DE SAINT SYLVAIN",,47.519795,-0.471135,,,0,place_GARD-D,,1
GARDON-E,38569,"GARDONNE",,47.521629,-0.470926,,,0,place_GARDON,,1
GARDONNE,12906,"GARDONNE",,47.521768,-0.471949,,,0,place_GARDON,,1
GARDOT,27530,"GARDOT",,47.468285,-0.533353,,,0,place_GARDOT,,1
GARDOT-E,17618,"GARDOT",,47.468284,-0.533103,,,0,place_GARDOT,,1
GAREBO-E,14886,"GARE DE BOUCHEMAINE",,47.416676,-0.614858,,,0,place_GAREBO,,1
GAREBOUC,13972,"GARE DE BOUCHEMAINE",,47.416637,-0.614744,,,0,place_GAREBO,,1
GARECO-E,23799,"GARE D'ECOUFLANT",,47.503879,-0.519712,,,0,place_GARECO,,0
GARECOUF,30849,"GARE D'ECOUFLANT",,47.503599,-0.520183,,,0,place_GARECO,,0
GAREPA-E,715,"GARES PAPIN",,47.465169,-0.557569,,,0,place_GARE,,0
GAREPAPI,16316,"GARES PAPIN",,47.464917,-0.557761,,,0,place_GARE,,0
GARESEMA,21525,"GARES SEMARD",,47.464955,-0.559286,,,0,place_GARE,,0
GARESNCF,18137,"ANGERS GARES",,47.464686,-0.558011,,,0,place_GARE,,0
GARPAPIN,26880,"ANGERS GARES",,47.464686,-0.558011,,,0,place_GARE,,0
GARR-AR,7592,"GARES SEMARD",,47.464955,-0.559286,,,0,place_GARE,,0
GARVIB-E,117813,"GARE VIEUX BRIOLLAY",,47.572999,-0.482547,,,0,place_GAVIBR,,0
GARVIBRI,30863,"GARE VIEUX BRIOLLAY",,47.573108,-0.482801,,,0,place_GAVIBR,,0
GASNIE-E,30059,"GASNIER",,47.485229,-0.571675,,,0,place_GASNIE,,1
GASNIER,21628,"GASNIER",,47.485220,-0.571879,,,0,place_GASNIE,,1
GASPAL-E,409,"GASPALON",,47.452852,-0.507281,,,0,place_GASPAL,,0
GASPALON,21485,"GASPALON",,47.453286,-0.506952,,,0,place_GASPAL,,0
GATS,7008,"LES GATS",,47.474404,-0.517656,,,0,place_GATS,,1
GATS  -E,11785,"LES GATS",,47.474304,-0.517184,,,0,place_GATS,,1
GAUBLOCA,18625,"GAUBOURGS",,47.448383,-0.572388,,,0,place_GAUBGS,,1
GAUBLOCB,21184,"GAUBOURGS",,47.448444,-0.573255,,,0,place_GAUBGS,,0
GAUBOU-E,23234,"GAUBOURGS",,47.449319,-0.573138,,,0,place_GAUBOU,,0
GAUBOUR5,29955,"GAUBOURGS",,47.447972,-0.572448,,,0,place_GAUBBO,,1
GAUGUI-E,397148,"PAUL GAUGUIN",,47.526696,-0.464142,,,0,place_PGAUGU,,1
GAUGUIN,168097,"PAUL GAUGUIN",,47.526766,-0.464629,,,0,place_PGAUGU,,1
GAUTIE-E,615013,"PAS GAUTIER",,47.471712,-0.409417,,,0,place_PASGAU,,0
GAUTIER,538212,"PAS GAUTIER",,47.471528,-0.409564,,,0,place_PASGAU,,0
GBREM-E,25296,"GARES BREMONT",,47.465715,-0.559484,,,0,place_GARE,,1
GDMAINE,14612,"GRAND MAINE",,47.467608,-0.593025,,,0,place_GDMAIN,,1
GDMAIN-E,15461,"GRAND MAINE",,47.467398,-0.593580,,,0,place_GDMAIN,,1
GDMOTTAY,327252,"GRAND MOTTAY",,47.575797,-0.477639,,,0,place_GRAMOT,,0
GDMOTT-E,431561,"GRAND MOTTAY",,47.575729,-0.477508,,,0,place_GRAMOT,,0
GDPERI-E,4875,"GRAND PERIGNE",,47.473909,-0.614659,,,0,place_GDPERI,,1
GDPERIGN,13901,"GRAND PERIGNE",,47.473809,-0.614664,,,0,place_GDPERI,,1
GDPRES-E,18745,"GRAND PRESSOIR",,47.399489,-0.528167,,,0,place_GDPRES,,0
GDPRESSO,39547,"GRAND PRESSOIR",,47.399434,-0.527715,,,0,place_GDPRES,,1
GEMMET-E,5906,"GEMMETRIE-ESAIP",,47.463218,-0.499321,,,0,place_ESAIP,,1
GEMMETR,27273,"GEMMETRIE-ESAIP",,47.463176,-0.499144,,,0,place_ESAIP,,1
GENDRIE,833019,"LA GENDRIE",,47.498948,-0.324872,,,0,place_GENDRI,,0
GENDRI-E,787054,"LA GENDRIE",,47.498822,-0.324752,,,0,place_GENDRI,,0
GENETI-E,30451,"GENETIERE",,47.494880,-0.443677,,,0,place_GENETI,,0
GENETIER,30363,"GENETIERE",,47.495005,-0.442515,,,0,place_GENETI,,0
GENIE,17276,"GENIE",,47.457984,-0.563909,,,0,place_GENIE,,1
GENIE -E,16931,"GENIE",,47.458149,-0.563825,,,0,place_GENIE,,1
GENTR-E,30843,"GENTRIC",,47.447939,-0.485186,,,0,place_GENTRI,,0
GENTRIC,45617,"GENTRIC",,47.447382,-0.485716,,,0,place_GENTRI,,0
GERI25,4572,"GRANDS RUAUX",,47.565824,-0.555758,,,0,place_GRANRU,,0
GERI25-E,19686,"GRANDS RUAUX",,47.565971,-0.555452,,,0,place_GRANRU,,0
GERICA-E,2160,"GERICAULT",,47.459861,-0.523681,,,0,place_GERICA,,1
GERICAUL,9434,"GERICAULT",,47.460105,-0.524604,,,0,place_GERICA,,1
GGESSAND,18970,"GEORGE SAND",,47.433139,-0.519621,,,0,place_GUILLE,,1
GGSAND-E,36947,"GEORGE SAND",,47.433340,-0.519533,,,0,place_GUILLE,,1
GILLIE-E,13563,"GILLIER",,47.474962,-0.525317,,,0,place_GILLIE,,1
GILLIER,4265,"GILLIER",,47.475051,-0.525888,,,0,place_GILLIE,,1
GIRAD-E,53995,"GIRARDEAU",,47.436438,-0.520408,,,0,place_GIRAR,,1
GIRARD,111619,"GIRARD",,47.490591,-0.581697,,,0,place_GIRARD,,0
GIRARDE,24763,"GIRARDEAU",,47.436629,-0.520933,,,0,place_GIRAR,,1
GIRARD-E,793256,"GIRARD",,47.490633,-0.581885,,,0,place_GIRARD,,0
GIRAUD,5136,"GIRAUDIERE",,47.521253,-0.436080,,,0,place_GIRAUD,,0
GLAND,863930,"LA GLAND",,47.403560,-0.658398,,,0,place_GLAND,,0
GLYCIN-E,28945,"GLYCINES",,47.498834,-0.523860,,,0,place_GLYCIN,,0
GLYCINES,2847,"GLYCINES",,47.499006,-0.523890,,,0,place_GLYCIN,,0
GOURON-E,1177,"GOURONNIERES",,47.483126,-0.569371,,,0,place_GOUROU,,1
GOURONNI,19767,"GOURONNIERES",,47.482974,-0.569443,,,0,place_GOUROU,,1
GPOMPIDO,2755,"POMPIDOU",,47.491891,-0.592339,,,0,place_GPOMPI,,0
GPOMPI-E,10339,"POMPIDOU",,47.492074,-0.592230,,,0,place_GPOMPI,,0
GRANBE-E,1713,"GRANGE AUX BELLES",,47.476709,-0.628329,,,0,place_ECOLEB,,1
GRANBELL,19824,"GRANGE AUX BELLES",,47.476672,-0.628594,,,0,place_ECOLEB,,1
GRANCHEM,658794,"GRAND CHEMIN",,47.417468,-0.310567,,,0,place_GRACHE,,0
GRANCLAY,748121,"GRAND CLAYE",,47.387070,-0.538353,,,0,place_GRANCL,,0
GRANCL-E,627562,"GRAND CLOS",,47.479806,-0.413527,,,0,place_GRACLO,,0
GRANCLOS,51638,"GRAND CLOS",,47.479709,-0.413631,,,0,place_GRACLO,,0
GRANDC-E,85459,"GRAND CLAYE",,47.387094,-0.538438,,,0,place_GRANCL,,1
GRANDM-E,12485,"GRANDMONT",,47.486947,-0.587992,,,0,place_GRANMO,,1
GRANDMON,11878,"GRANDMONT",,47.487549,-0.587593,,,0,place_GRANMO,,1
GRANDPIN,21061,"GRAND PIN",,47.473291,-0.631953,,,0,place_GDPIN,,1
GRANPI-E,22564,"GRAND PIN",,47.473301,-0.631656,,,0,place_GDPIN,,1
GRCARR-E,7784,"ARENA LOIRE",,47.443454,-0.478290,,,0,place_ARENAL,,1
GRCARREA,7000,"ARENA LOIRE",,47.443460,-0.478690,,,0,place_ARENA,,1
GRCHAM-E,669,"GRANDS CHAMPS",,47.514728,-0.434038,,,0,place_GRDCHA,,0
GRCHAMPS,364,"GRANDS CHAMPS",,47.514649,-0.434210,,,0,place_GRDCHA,,0
GRCPRU-E,25729,"GROUPE COMMERCIAL",,47.445584,-0.606625,,,0,place_CCPRUN,,1
GRCPRUNI,24782,"GROUPE COMMERCIAL",,47.445730,-0.605908,,,0,place_CCPRUN,,1
GRENOUIL,343073,"LE GRENOUILLE",,47.502958,-0.328259,,,0,place_GRENOU,,0
GRES11-E,15716,"GRESILLE",,47.459628,-0.605738,,,0,place_GRESIL,,1
GRESILLE,20154,"GRESILLE",,47.459643,-0.605501,,,0,place_GRESIL,,1
GRIMOR-E,24527,"GRIMORELLE",,47.529422,-0.507299,,,0,place_GRIMOR,,0
GRIMOREL,7975,"GRIMORELLE",,47.529494,-0.507307,,,0,place_GRIMOR,,0
GROI 2-E,919401,"LES GROIES 2",,47.492028,-0.399523,,,0,place_GROIE2,,0
GROIES,14865,"LES GROIES 1",,47.494179,-0.404213,,,0,place_GROIE1,,0
GROIES 2,456886,"LES GROIES 2",,47.492026,-0.399656,,,0,place_GROIE2,,0
GROIES-E,23297,"LES GROIES 1",,47.494277,-0.404250,,,0,place_GROIE1,,0
GROLLI-E,30562,"GROLIERE",,47.353982,-0.527609,,,0,place_GROL,,0
GROLLIER,29484,"GROLIERE",,47.353945,-0.527456,,,0,place_GROL,,0
GRUICHE,306120,"LA GRUICHE",,47.553499,-0.453800,,,0,place_GRUICH,,0
GRUICH-E,560134,"LA GRUICHE",,47.553592,-0.453882,,,0,place_GRUICH,,0
GUERAND,12936,"GUERANDAIS",,47.527436,-0.748975,,,0,place_GUERAN,,0
GUERAN-E,12246,"GUERANDAIS",,47.527309,-0.748562,,,0,place_GUERAN,,0
GUICHA-E,16895,"GUICHARD",,47.454681,-0.547997,,,0,place_GUICHA,,1
GUICHARD,21276,"GUICHARD",,47.455296,-0.549254,,,0,place_GUICHA,,1
GUILLAU,785925,"GUILLAUMIERE",,47.533051,-0.671843,,,0,place_GUILLA,,0
GUILL-E,484479,"GUILLAUMIERE",,47.533142,-0.671734,,,0,place_GUILLA,,0
GUILLEB.,13455,"GUILLEBOTTE",,47.437417,-0.513700,,,0,place_GUIRON,,1
GUILLE-E,30927,"GUILLEBOTTE",,47.437282,-0.513290,,,0,place_GUIRON,,1
GUINEZE,18158,"GUINEZERT",,47.461785,-0.630989,,,0,place_GUINEZ,,0
GUINEZ-E,13857,"GUINEZERT",,47.461784,-0.631082,,,0,place_GUINEZ,,0
HARAS,20835,"FOCH HARAS",,47.467124,-0.551936,,,0,place_HARAS,,1
HARAS-E,3412,"FOCH HARAS",,47.467252,-0.552234,,,0,place_HARAS,,1
HARENC,18680,"HARENCHERES",,47.448695,-0.615603,,,0,place_HARENC,,1
HARENC-E,498256,"HARENCHERES",,47.448572,-0.615979,,,0,place_HARENC,,0
HAUBOUCH,4077,"HAUTS DE BOUCHEMAINE",,47.430487,-0.609516,,,0,place_HBOUCH,,1
HAUBOU-E,4893,"HAUTS DE BOUCHEMAINE",,47.430068,-0.609392,,,0,place_HBOUCH,,1
HAUCOUD,318097,"HAUT COUDRAY",,47.530417,-0.624038,,,0,place_HAUCOU,,1
HAUCOU-E,652182,"HAUT COUDRAY",,47.530522,-0.624129,,,0,place_HAUCOU,,1
HAUTE-E,792660,"HAUTE ROCHE",,47.469074,-0.634858,,,0,place_HAUTRO,,0
HAUTERO,20353,"HAUTE ROCHE",,47.469075,-0.634997,,,0,place_HAUTRO,,0
HAUTPR-E,52,"HAUT PRESSOIR",,47.453158,-0.538099,,,0,place_HOPRES,,1
HAUTPRES,2552,"HAUT PRESSOIR",,47.453192,-0.538481,,,0,place_HOPRES,,1
HDVSUB,159454,"HÔTEL DE VILLE",,47.471981,-0.546310,,,0,place_HDVSUB,,1
HDVSUB-A,674817,"HÔTEL DE VILLE",,47.471981,-0.546310,,,0,place_HDVSUB,,1
HERMIT,746837,"HERMITAGE SOUCELLES",,47.584399,-0.416653,,,0,place_HERM32,,1
HERMIT32,1981,"L'HERMITAGE SOUCELLES",,47.584608,-0.417577,,,0,place_HERM32,,0
HERMITAG,16281,"HERMITAGE",,47.477762,-0.635924,,,0,place_HERMIT,,1
HERMIT-E,16836,"HERMITAGE",,47.477759,-0.635303,,,0,place_HERMIT,,1
HERMLT32,3329,"L'HERMITAGE SOUCELLES",,47.584608,-0.417577,,,0,place_HERM32,,0
HIPPOD-E,25720,"HIPPODROME",,47.500888,-0.507814,,,0,place_HIPPOD,,1
HIPPODRO,25067,"HIPPODROME",,47.501229,-0.507431,,,0,place_HIPPOD,,1
HJOU32,18910,"HAIE JOULAIN",,47.517582,-0.462656,,,0,place_HAIJOU,,0
HJOU32-E,32588,"HAIE JOULAIN",,47.517487,-0.462736,,,0,place_HAIJOU,,0
HMAI,11449,"LORRAINE",,47.470340,-0.547199,,,0,place_CENTRE,,1
HMTRE-E,20239,"8 MAI TRELAZE",,47.449399,-0.464995,,,0,place_TREL8M,,1
HMTREL,14635,"8 MAI TRELAZE",,47.449774,-0.465528,,,0,place_TREL8M,,0
HOPA8-C,27358,"CHU - HOPITAL",,47.480652,-0.554831,,,0,place_MATER,,1
HOSGEM-E,6304,"HOPITAL DE SAINTE GEMMES",,47.422965,-0.560815,,,0,place_HOSGEM,,1
HOSGEMME,3118,"HOPITAL DE SAINTE GEMMES",,47.422862,-0.560785,,,0,place_HOSGEM,,1
HOTDIE-E,22507,"HOTEL DIEU",,47.479368,-0.561084,,,0,place_HOPITA,,1
HOTDIEU,4414,"HOTEL DIEU",,47.479199,-0.559338,,,0,place_HOPITA,,1
HOTELL-E,31454,"HOTELLERIE",,47.488845,-0.518958,,,0,place_HOTELL,,0
HOTELLER,30702,"HOTELLERIE",,47.489373,-0.519596,,,0,place_HOTELL,,0
HOUSSAY,802941,"LA HOUSSAYE",,47.586496,-0.457032,,,0,place_HOUSSA,,1
HRECUL-E,1885,"HAUTE DE RECULEE",,47.485014,-0.552912,,,0,place_RECULE,,0
HRECULEE,11114,"HAUTE DE RECULEE",,47.485006,-0.552662,,,0,place_RECULE,,0
HTCHA,635019,"HAUTES CHAPELLES",,47.475770,-0.380959,,,0,place_HAUCHA,,1
HTCHAP-E,72625,"HAUTES CHAPELLES",,47.475810,-0.380867,,,0,place_HAUCHA,,0
HTCHAPEL,969044,"HAUTES CHAPELLES",,47.475858,-0.380862,,,0,place_HAUCHA,,0
HTEBRUY,901720,"LES HAUTES BRUYERES",,47.593430,-0.454441,,,0,place_HAUBRU,,0
HTESBR-E,504742,"LES HAUTES BRUYERES",,47.593485,-0.454302,,,0,place_HAUBRU,,0
HUETTE-E,924330,"HUETTERIE",,47.458948,-0.478936,,,0,place_HUETTE,,0
HUETTERI,899997,"HUETTERIE",,47.459257,-0.478339,,,0,place_HUETTE,,0
HULLET-E,33384,"HULLETERIES",,47.465460,-0.720908,,,0,place_HULLET,,0
HULLETER,25810,"HULLETERIES",,47.465353,-0.720932,,,0,place_HULLET,,0
HUTREA-E,7382,"HUTREAU",,47.431353,-0.555494,,,0,place_HUTREA,,0
HUTREAU,10466,"HUTREAU",,47.432917,-0.554502,,,0,place_HUTREA,,0
HYLIER,471124,"LE HYLIER",,47.585737,-0.402107,,,0,place_HYLIER,,0
I U T,27801,"IUT",,47.480263,-0.602472,,,0,place_IUT,,1
I U T -E,31087,"IUT",,47.480539,-0.602973,,,0,place_IUT,,1
IMTEC,27425,"BOUZINAC",,47.503319,-0.509729,,,0,place_IMTEC,,0
IMTEC-E,31805,"BOUZINAC",,47.503229,-0.509754,,,0,place_IMTEC,,0
INDUST-E,12168,"INDUSTRIE",,47.490015,-0.522870,,,0,place_INDUST,,0
INDUSTRI,11352,"INDUSTRIE",,47.490268,-0.522954,,,0,place_INDUST,,0
INRA,13650,"INRA",,47.474703,-0.611122,,,0,place_INRA,,1
INRA  -E,7366,"INRA",,47.474736,-0.611303,,,0,place_INRA,,1
INTAVR-E,6846,"AUCHAN",,47.518234,-0.606453,,,0,place_INTERA,,1
INTERAVR,29162,"AUCHAN",,47.518696,-0.607586,,,0,place_INTERA,,1
INTERMIL,3434,"INTERMARCHE",,47.454588,-0.534802,,,0,place_INTMIL,,1
INTMIL-E,1195,"INTERMARCHE",,47.455738,-0.533783,,,0,place_INTMIL,,1
INTREP-E,8993,"INTREPIDE",,47.447350,-0.552296,,,0,place_INTREP,,0
INTREPID,14842,"INTREPIDE",,47.447226,-0.552110,,,0,place_INTREP,,0
IRLANDE,8934,"IRLANDE",,47.522992,-0.604978,,,0,place_IRLAND,,1
IRLAND-E,12365,"IRLANDE",,47.523061,-0.604277,,,0,place_IRLAND,,1
ISORET,25741,"ISORET",,47.474718,-0.520832,,,0,place_ISORET,,1
ISORET-E,23628,"ISORET",,47.474436,-0.520149,,,0,place_ISORET,,1
ITALIE,9717,"ITALIE",,47.524529,-0.602375,,,0,place_ITALIE,,1
ITALIE-E,13083,"ITALIE",,47.524767,-0.601998,,,0,place_ITALIE,,1
JANEQU-E,292536,"COLLEGE JANEQUIN",,47.498117,-0.591526,,,0,place_JANEQU,,0
JANEQUIN,297498,"COLLEGE JANEQUIN",,47.498094,-0.591283,,,0,place_JANEQU,,0
JARDBOTA,815390,"JARDIN BOTANIQUE",,47.571711,-0.502605,,,0,place_JARBOT,,0
JARDFA,35425,"JARDINS FAMILIAUX",,47.485557,-0.508433,,,0,place_JARDFA,,1
JARDF-E,46662,"JARDINS FAMILIAUX",,47.485579,-0.508106,,,0,place_JARDFA,,1
JAUDE-E,21218,"JAUDETTE",,47.463316,-0.490954,,,0,place_JAUDET,,0
JAUDET-E,22741,"JAUDETTE",,47.463796,-0.490388,,,0,place_JAUDET,,1
JAUDETT,10931,"JAUDETTE",,47.463300,-0.491129,,,0,place_JAUDET,,0
JAUDETTE,22121,"JAUDETTE",,47.463652,-0.490218,,,0,place_JAUDET,,1
JBODIN,21354,"LYCEE JEAN BODIN",,47.441544,-0.527979,,,0,place_JBODIN,,0
JDELAVAL,276704,"JEANNE DE LAVAL",,47.465674,-0.383837,,,0,place_JEANNE,,0
JDELAV-E,185658,"JEANNE DE LAVAL",,47.465836,-0.383467,,,0,place_JEANNE,,0
JE23-E,11485,"JEAN XXIII",,47.448520,-0.563811,,,0,place_JEAN23,,1
JEAN 23,14455,"JEAN XXIII",,47.448326,-0.563736,,,0,place_JEAN23,,1
JEAN M-E,14704,"MONNET",,47.465477,-0.601311,,,0,place_JEANMO,,1
JEAN MON,12810,"MONNET",,47.465634,-0.601452,,,0,place_JEANMO,,1
JEANNA-E,226219,"COLLÈGE JEANNE D'ARC",,47.520419,-0.465594,,,0,place_JEDARC,,0
JEANNARC,590509,"COLLEGE JEANNE D'ARC",,47.520392,-0.465590,,,0,place_JEDARC,,0
JEANRO-E,256324,"JEAN ROSTAND",,47.448195,-0.501026,,,0,place_ROSTAN,,0
JEANROST,369358,"JEAN ROSTAND",,47.448817,-0.501141,,,0,place_ROSTAN,,0
JEANZA-E,132541,"COLLEGE JEAN ZAY",,47.529678,-0.607583,,,0,place_JEANZA,,0
JEANZAY,602684,"COLLEGE JEAN ZAY",,47.529674,-0.607596,,,0,place_JEANZA,,0
JEBOUI-E,32451,"JEAN BOUIN",,47.458999,-0.532813,,,0,place_JEABOU,,1
JEBOUIN,43885,"JEAN BOUIN",,47.458885,-0.532981,,,0,place_JEABOU,,1
JEBOUT-E,12854,"JEAN BOUTTON",,47.438891,-0.507244,,,0,place_JBOUTO,,1
JEBOUTON,30254,"JEAN BOUTTON",,47.438577,-0.507367,,,0,place_JBOUTO,,1
JEHUEZ,13375,"JEAN HUEZ",,47.530829,-0.594392,,,0,place_JEHUEZ,,0
JEHUEZ-E,27321,"JEAN HUEZ",,47.530884,-0.594262,,,0,place_JEHUEZ,,0
JEJAUR-E,5930,"JEAN JAURES",,47.457683,-0.522819,,,0,place_JAURES,,1
JEJAURES,6732,"JEAN JAURES",,47.457331,-0.523166,,,0,place_JAURES,,1
JEROSTAN,10465,"ROSTAND",,47.434262,-0.513764,,,0,place_JEANRO,,1
JEROST-E,16865,"ROSTAND",,47.434367,-0.514074,,,0,place_JEANRO,,1
JERUSA-E,30745,"JERUSALEM",,47.473541,-0.529699,,,0,place_JERUSA,,1
JERUSALE,23164,"JERUSALEM",,47.473044,-0.530216,,,0,place_JERUSA,,1
JOACH,905575,"JOACHIM DU BELLAY",,47.476439,-0.547666,,,0,place_JOACHI,,1
JOACHI-E,963548,"JOACHIM DU BELLAY",,47.476510,-0.547370,,,0,place_JOACHI,,0
JOACHIM,890943,"JOACHIM DU BELLAY",,47.476510,-0.547370,,,0,place_JOACHI,,0
JUFERR-E,829,"JULES FERRY",,47.466355,-0.498896,,,0,place_JFERRY,,1
JUFERRY,32650,"JULES FERRY",,47.466377,-0.498721,,,0,place_JFERRY,,1
JUIGDEP,15142,"JUIGNE",,47.539949,-0.615383,,,0,place_JUIGNP,,0
JUIGN-E,15158,"JUIGNE",,47.539135,-0.616141,,,0,place_JUIGNP,,0
JUINDRIE,103281,"LES JUINDRIES",,47.506090,-0.382506,,,0,place_JUINDR,,0
JULESV-E,3251,"JULES VERNE",,47.446936,-0.560632,,,0,place_JULEVE,,1
JULESVER,11240,"JULES VERNE",,47.447479,-0.562224,,,0,place_JULEVE,,1
JUSTIC-E,4918,"JUSTICES",,47.453331,-0.526272,,,0,place_JUSTIC,,1
JUSTICES,9099,"JUSTICES",,47.453629,-0.526549,,,0,place_JUSTIC,,1
KENNED-E,21066,"KENNEDY",,47.492160,-0.577153,,,0,place_KENNED,,1
KENNEDY,32307,"KENNEDY",,47.492142,-0.577349,,,0,place_KENNED,,1
LA BOI-E,19259,"LA BOISSIERE",,47.504706,-0.600175,,,0,place_BOISSI,,1
LA BOISS,15667,"LA BOISSIERE",,47.504770,-0.599956,,,0,place_BOISSI,,1
LABA32-E,12328,"LA BARRE VILLEVEQUE",,47.552193,-0.429209,,,0,place_LABARV,,0
LABARR32,26356,"LA BARRE VILLEVEQUE",,47.552249,-0.429346,,,0,place_LABARV,,0
LABARRE,26186,"LA BARRE",,47.473183,-0.597398,,,0,place_BARRE,,0
LABARR-E,24553,"LA BARRE",,47.473237,-0.598199,,,0,place_BARRE,,0
LABROS-E,19344,"LA BROSSE ECOUFLANT",,47.532455,-0.522145,,,0,place_LABROS,,0
LABROSSE,11507,"LA BROSSE ECOUFLANT",,47.532539,-0.522099,,,0,place_LABROS,,0
LABRUY-E,15826,"LA BRUYERE",,47.476457,-0.573345,,,0,place_LABRUY,,1
LABRUYER,2726,"LA BRUYERE",,47.476594,-0.573899,,,0,place_LABRUY,,1
LABUIS-E,24945,"LA BUISSAIE",,47.396155,-0.552376,,,0,place_BUISSA,,1
LABUISSA,24161,"LA BUISSAIE",,47.396104,-0.552000,,,0,place_BUISSA,,1
LACACC-E,16598,"MAISON DE L'ENVIRONNEMENT",,47.464050,-0.594329,,,0,place_MAIENV,,1
LACACCUE,15782,"MAISON DE L'ENVIRONNEMENT",,47.464238,-0.593932,,,0,place_MAIENV,,1
LACDMA-E,27440,"LAC DE MAINE NAUTIQUE",,47.461097,-0.596384,,,0,place_LDMNAU,,1
LACDMAIN,30379,"LAC DE MAINE NAUTIQUE",,47.461185,-0.596030,,,0,place_LDMNAU,,1
LACOUD-E,19006,"LA COUDRE",,47.460484,-0.710327,,,0,place_LACOUD,,0
LACOUDRE,14817,"LA COUDRE",,47.460641,-0.710428,,,0,place_LACOUD,,0
LACROIX,98921,"LA CROIX",,47.417821,-0.314498,,,0,place_LACROI,,0
LAEN-E,66371,"LAENNEC",,47.539430,-0.618642,,,0,place_LAENEC,,1
LAENN,43968,"LAENNEC",,47.539332,-0.618370,,,0,place_LAENEC,,1
LAFA8-C,19461,"PLACE LA FAYETTE",,47.460455,-0.554351,,,0,place_PLFAYE,,1
LAFA8-E,6452,"PLACE LA FAYETTE",,47.460311,-0.554852,,,0,place_PLFAYE,,1
LAFAUV-E,17497,"LA FAUVELAIS",,47.451961,-0.512129,,,0,place_LAFAUV,,0
LAFAUVEL,8205,"LA FAUVELAIS",,47.452170,-0.512768,,,0,place_LAFAUV,,0
LAGLOU-E,32242,"GLOUTIERE",,47.508178,-0.643696,,,0,place_GLOUTI,,0
LAGLOUTI,1095,"GLOUTIERE",,47.509386,-0.646220,,,0,place_GLOUTI,,0
LAGRAN-E,11339,"LA GRANGE",,47.504497,-0.636804,,,0,place_GRANGE,,0
LAGRANGE,26550,"LA GRANGE",,47.503282,-0.632464,,,0,place_GRANGE,,0
LAJANV-E,31442,"JANVRIE",,47.504213,-0.699937,,,0,place_JANVRI,,0
LAJANVRI,29429,"JANVRIE",,47.504017,-0.699654,,,0,place_JANVRI,,0
LALANDE,30783,"LANDE",,47.562290,-0.585439,,,0,place_LANDE,,0
LALAN-E,8374,"LANDE",,47.562431,-0.585311,,,0,place_LANDE,,0
LAMAIL-E,505607,"LA MAILLÉE",,47.485132,-0.391329,,,0,place_MAILLE,,0
LAMAILLE,424217,"LA MAILLÉE",,47.485065,-0.391433,,,0,place_MAILLE,,0
LAMARE,25707,"LA MARE",,47.468452,-0.465301,,,0,place_LAMARE,,0
LAMARE-E,691886,"LA MARE",,47.468348,-0.465286,,,0,place_LAMARE,,0
LAMART,79764,"LAREVELLIERE",,47.471223,-0.531822,,,0,place_LAREVE,,1
LAMART-E,2631,"LAREVELLIERE",,47.471309,-0.533634,,,0,place_LAREVE,,1
LANDREAU,29073,"LE LANDREAU",,47.474025,-0.617838,,,0,place_LANDRE,,1
LANDRE-E,31271,"LE LANDREAU",,47.474163,-0.617850,,,0,place_LANDRE,,1
LANGE-E,20985,"LANGEVIN",,47.518469,-0.612125,,,0,place_ZICCAD,,0
LANGEV-E,24587,"LANGEVINE",,47.478757,-0.691913,,,0,place_LANGEV,,0
LANGEVI,20461,"LANGEVIN",,47.518469,-0.612125,,,0,place_ZICCAD,,0
LANGEVIN,23618,"LANGEVINE",,47.477812,-0.692010,,,0,place_LANGEV,,0
LAPLES-E,7870,"LA PLESSE",,47.499554,-0.620452,,,0,place_LAPLES,,0
LAPLESSE,22986,"LA PLESSE",,47.499411,-0.620368,,,0,place_LAPLES,,0
LAPOIN-E,17596,"LA POINTE",,47.409872,-0.620310,,,0,place_LAPOIN,,0
LAPOINTE,16943,"LA POINTE",,47.410287,-0.619839,,,0,place_LAPOIN,,0
LAREU-E,13697,"LA REUX",,47.469410,-0.510411,,,0,place_LAREUX,,1
LAREUX,31088,"LA REUX",,47.469546,-0.510575,,,0,place_LAREUX,,1
LAROCHE,5358,"LA ROCHE",,47.458100,-0.656934,,,0,place_LAROCH,,0
LAUD,1162,"BODINIER",,47.472656,-0.553225,,,0,place_BODINI,,0
LAUD-E,750061,"BODINIER",,47.472842,-0.553270,,,0,place_BODINI,,0
LAV SC-E,108070,"LAVOIR SCOLAIRE",,47.440876,-0.498629,,,0,place_LAVOIR,,0
LAV SCOL,561692,"LAVOIR Scolaire",,47.441020,-0.498498,,,0,place_LAVOIR,,0
LAVOIR,327,"LAVOIR",,47.440630,-0.498864,,,0,place_LAVOIR,,1
LAVOIR-E,10144,"LAVOIR",,47.440760,-0.498970,,,0,place_LAVOIR,,1
LBALUE-E,28840,"BALUERES",,47.377630,-0.524851,,,0,place_BALUER,,0
LBALUERE,37252,"BALUERES",,47.377628,-0.524673,,,0,place_BALUER,,0
LCHATA-E,28519,"CHATAIGNERAIE",,47.441224,-0.607768,,,0,place_LCHATA,,1
LCHATAIG,30413,"CHATAIGNERAIE",,47.441338,-0.607800,,,0,place_LCHATA,,1
LE CLO-E,211710,"LE CLOS",,47.424655,-0.427995,,,0,place_LECLOS,,0
LE CLOS,600179,"LE CLOS",,47.424661,-0.428128,,,0,place_LECLOS,,0
LE PRE,776914,"LE PRÉ",,47.515116,-0.584947,,,0,place_LEPRE,,1
LE PRE-E,66363,"LE PRÉ",,47.515260,-0.585106,,,0,place_LEPRE,,1
LECHENE,12874,"LE CHENE",,47.420953,-0.575995,,,0,place_LECHEN,,0
LECHEN-E,9672,"LE CHENE",,47.420738,-0.577473,,,0,place_LECHEN,,0
LECL05-E,18831,"LECLERC",,47.483002,-0.575738,,,0,place_LECLER,,1
LECLERC5,32620,"LECLERC",,47.483075,-0.576015,,,0,place_LECLER,,1
LECLSY-E,30324,"MARECHAL LECLERC",,47.518415,-0.466724,,,0,place_LECSTS,,1
LECLSYLV,29018,"MARECHAL LECLERC",,47.518515,-0.466522,,,0,place_LECSTS,,1
LECOLO-E,26859,"ROUTE DU PLESSIS",,47.525467,-0.666849,,,0,place_RTEPLE,,0
LECOLOM,31338,"ROUTE DU PLESSIS",,47.525618,-0.667273,,,0,place_RTEPLE,,0
LECORB-E,1502,"LE CORBUSIER",,47.485453,-0.630886,,,0,place_LECORB,,1
LECORBUS,12622,"LE CORBUSIER",,47.484404,-0.631786,,,0,place_LECORB,,1
LECOTEAU,25663,"LE COTEAU",,47.398239,-0.548674,,,0,place_COTEAU,,1
LECOTE-E,26708,"LE COTEAU",,47.398038,-0.549055,,,0,place_COTEAU,,1
LECUIT,25536,"LECUIT",,47.489261,-0.563016,,,0,place_LECUIT,,1
LECUIT-E,28784,"LECUIT",,47.489452,-0.562763,,,0,place_LECUIT,,1
LEDENI-E,6895,"MAISON DU LAC",,47.466089,-0.597783,,,0,place_MAILAC,,1
LEDENIER,6046,"MAISON DU LAC",,47.466007,-0.598900,,,0,place_MAILAC,,1
LEFEVRE,15440,"LEFEVRE",,47.443291,-0.488697,,,0,place_LEFEVR,,1
LEFEVR-E,16289,"LEFEVRE",,47.443181,-0.489166,,,0,place_LEFEVR,,1
LEGRAS,24887,"LEGRAS",,47.529259,-0.566971,,,0,place_LEGRAS,,0
LEGRAS-E,11618,"LEGRAS",,47.529174,-0.566890,,,0,place_LEGRAS,,0
LEMERC-E,15956,"LEMERCIER",,47.498615,-0.522428,,,0,place_LEMERC,,0
LEMERCIE,15271,"LEMERCIER",,47.498671,-0.522651,,,0,place_LEMERC,,0
LEOLA2-E,5985,"LEO LAGRANGE",,47.447816,-0.510352,,,0,place_LEOLAG,,1
LEOLAGRA,5291,"LEO LAGRANGE",,47.447837,-0.509933,,,0,place_LEOLAG,,1
LESECO-E,7610,"LES ECOTS",,47.475507,-0.695793,,,0,place_ECOTS,,0
LESECOTS,19016,"LES ECOTS",,47.475558,-0.695527,,,0,place_ECOTS,,0
LESGARES,20210,"LES GARES",,47.465168,-0.555790,,,0,place_GARE,,1
LESGAT-E,24961,"LES GAS",,47.514576,-0.659575,,,0,place_LESGAS,,0
LESGRA-E,324614,"LES GRAPPES",,47.426565,-0.301213,,,0,place_GRAPPE,,0
LESLANDE,2090,"ROBINIERES",,47.470340,-0.697249,,,0,place_ROBINI,,0
LESLAN-E,8170,"ROBINIERES",,47.470718,-0.697247,,,0,place_ROBINI,,0
LESRIV-E,26528,"LES RIVES",,47.526712,-0.525072,,,0,place_LESRIV,,0
LESRIVES,31416,"LES RIVES",,47.526623,-0.525087,,,0,place_LESRIV,,0
LESROS-E,25672,"LES ROSES",,47.426867,-0.551627,,,0,place_LESROS,,0
LESROSES,5502,"LES ROSES",,47.427059,-0.551364,,,0,place_LESROS,,0
LESSAR-E,23657,"LES ESSARTS",,47.469187,-0.736800,,,0,place_LESSAR,,0
LESSARTS,25628,"LES ESSARTS",,47.469086,-0.736728,,,0,place_LESSAR,,0
LETAND16,27068,"LETANDUERE",,47.452805,-0.553174,,,0,place_LETAND,,1
LETAND-E,13125,"LETANDUERE",,47.453058,-0.553309,,,0,place_LETAND,,1
LEVESQ-E,29876,"LEVESQUE",,47.402264,-0.534475,,,0,place_LEVESQ,,1
LEVESQUE,29223,"LEVESQUE",,47.402198,-0.533443,,,0,place_LEVESQ,,1
LHOI11-E,19931,"LAC DE MAINE - L'HOIRIE",,47.467167,-0.618490,,,0,place_LHOIRI,,1
LHOIRI11,32088,"LAC DE MAINE - L'HOIRIE",,47.467056,-0.618262,,,0,place_LHOIRI,,0
LHOIRI-E,7844,"LAC DE MAINE - L'HOIRIE",,47.467031,-0.618365,,,0,place_LHOIRI,,0
LICES,11754,"LICES",,47.467114,-0.554489,,,0,place_LIC,,1
LICES -E,12276,"LICES",,47.466947,-0.554650,,,0,place_LIC,,1
LILAS,6187,"LILAS",,47.459435,-0.662992,,,0,place_LILAS,,0
LILAS-E,17216,"LILAS",,47.459544,-0.663041,,,0,place_LILAS,,0
LINOVE-E,7167,"LINO VENTURA",,47.447160,-0.529189,,,0,place_LINOVE,,1
LINOVENT,31038,"LINO VENTURA",,47.447568,-0.529145,,,0,place_LINOVE,,1
LIZE,14789,"LIZE",,47.486849,-0.573163,,,0,place_LIZE39,,1
LIZE -E,18714,"LIZE",,47.486878,-0.572975,,,0,place_LIZE39,,1
LIZE.,26415,"LIZE",,47.487126,-0.574408,,,0,place_LIZE,,1
LIZE05-E,27387,"LIZE",,47.486884,-0.574495,,,0,place_LIZE,,1
LMARZE-E,29867,"HAUTE MARZELLE",,47.342927,-0.529723,,,0,place_LESMAR,,0
LMARZELL,2200,"HAUTE MARZELLE",,47.343053,-0.529608,,,0,place_LESMAR,,0
LOHUIT,5526,"LORRAINE",,47.470224,-0.547149,,,0,place_CENTRE,,1
LOIRE,14252,"LOIRE",,47.418758,-0.523356,,,0,place_STLAUD,,1
LOIRE -E,30797,"LOIRE",,47.417786,-0.523584,,,0,place_STLAUD,,1
LOMBARD,43351,"LOMBARDIERES",,47.442497,-0.690358,,,0,place_LOMBAR,,0
LOMBAR-E,1349,"LOMBARDIERES",,47.442609,-0.690661,,,0,place_LOMBAR,,0
LORETTE,7966,"LORETTE",,47.451326,-0.548029,,,0,place_LORETT,,0
LORETT-E,9272,"LORETTE",,47.451214,-0.547596,,,0,place_LORETT,,0
LOR-FO-A,3039,"FOCH MAISON BLEUE",,47.469630,-0.548574,,,0,place_CENTRE,,1
LORPLM,22199,"L'OREE",,47.542630,-0.672404,,,0,place_LORPLM,,0
LORPLM-E,8507,"L'OREE",,47.542585,-0.672335,,,0,place_LORPLM,,0
LORR3BIS,29230,"LORRAINE",,47.470057,-0.547885,,,0,place_CENTRE,,0
LORRAIN1,20636,"LORRAINE",,47.470220,-0.547761,,,0,place_CENTRE,,1
LORRAIN2,31902,"LORRAINE",,47.470056,-0.547885,,,0,place_CENTRE,,0
LORRTERM,23465,"LORRAINE",,47.470190,-0.547600,,,0,place_CENTRE,,1
LORTIE-E,864598,"L'ORTIER",,47.571234,-0.426110,,,0,place_LORTIE,,1
LORTIER,323427,"L'ORTIER",,47.571415,-0.426560,,,0,place_LORTIE,,1
LOTISS-E,411,"LOTISSEMENT DE VILLEVEQUE",,47.556726,-0.424144,,,0,place_VILVLO,,0
LOTISSEM,29903,"LOTISSEMENT DE VILLEVEQUE",,47.556619,-0.424478,,,0,place_VILVLO,,0
LOTVIL-E,788224,"LOTISSEMENT VILLEVEQUE",,47.556566,-0.425561,,,0,place_LOTSCO,,0
LOTVILSC,477611,"LOTISSEMENT VILLEVEQUE",,47.556469,-0.425549,,,0,place_LOTSCO,,0
LOUET,10203,"LOUET",,47.412223,-0.523611,,,0,place_LOUET,,0
LOUET -E,10791,"LOUET",,47.412455,-0.523934,,,0,place_LOUET,,0
LOUPIN-E,26592,"LOUPINOT",,47.424594,-0.552657,,,0,place_LOUPIN,,0
LOUPINO,22893,"LOUPINOT",,47.424534,-0.552507,,,0,place_LOUPIN,,0
LTAC-E,242,"BOURG DE SOULAINES",,47.364607,-0.525048,,,0,place_BOUSOU,,0
LTACHON,10237,"BOURG DE SOULAINES",,47.365002,-0.525149,,,0,place_BOUSOU,,0
LUTIN,32534,"LUTIN",,47.475761,-0.534420,,,0,place_LUTIN,,1
LUTIN -E,485,"LUTIN",,47.475729,-0.534174,,,0,place_LUTIN,,1
LYCEEJMO,28865,"JEAN MOULIN",,47.492399,-0.551893,,,0,place_JMOULI,,1
LYCJMO-E,6081,"JEAN MOULIN",,47.492224,-0.551831,,,0,place_JMOULI,,1
MA4VE-E,22693,"MAIL DES QUATRE VENTS",,47.531851,-0.528449,,,0,place_MAQUAT,,0
MACASSAT,16044,"MARY CASSATT",,47.511242,-0.602734,,,0,place_CASSAT,,0
MACASS-E,8001,"MARY CASSATT",,47.510508,-0.604324,,,0,place_CASSAT,,0
MACE,23738,"MACE",,47.476645,-0.532737,,,0,place_MACE,,1
MACE  -E,24326,"MACE",,47.477009,-0.531731,,,0,place_MACE,,1
MACURIE,12294,"MARIE CURIE",,47.433308,-0.516555,,,0,place_MARIEC,,1
MACURI-E,15853,"MARIE CURIE",,47.433310,-0.517047,,,0,place_MARIEC,,1
MADELE-E,10442,"MADELEINE",,47.459044,-0.535589,,,0,place_MADE,,1
MADELEIN,20411,"MADELEINE",,47.459277,-0.535680,,,0,place_MADE,,1
MAETUD-E,25699,"POLYTECH ANGERS",,47.480635,-0.594586,,,0,place_MAETUD,,1
MAETUDIA,25548,"POLYTECH ANGERS",,47.480575,-0.594592,,,0,place_MAETUD,,1
MAI4VEN,30964,"MAIL DES QUATRE VENTS",,47.531792,-0.528554,,,0,place_MAQUAT,,0
MAIL-HDV,7828,"MAIL",,47.471080,-0.546309,,,0,place_MA-HDV,,1
MAIL-NAE,15219,"MAIL",,47.471272,-0.546578,,,0,place_MA-HDV,,1
MAIRAV-E,14192,"MAIRIE D'AVRILLE",,47.504954,-0.590814,,,0,place_MAIRAV,,1
MAIRAVR,11971,"MAIRIE D'AVRILLE",,47.504486,-0.589939,,,0,place_MAIRAV,,1
MAIRTR-E,3669,"MAIRIE DE TRELAZE",,47.445486,-0.468266,,,0,place_TREMAI,,1
MAIRTREL,26533,"MAIRIE DE TRELAZE",,47.445663,-0.469170,,,0,place_TREMAI,,1
MAISNE-E,819362,"MAISON NEUVE",,47.453832,-0.428021,,,0,place_MAINEU,,0
MAISNEUV,475623,"MAISON NEUVE",,47.454514,-0.428178,,,0,place_MAINEU,,0
MAISONSR,8771,"MAISONS ROUGES",,47.474491,-0.511925,,,0,place_MAIROU,,1
MAISRO-E,17645,"MAISONS ROUGES",,47.474413,-0.511809,,,0,place_MAIROU,,1
MAJUIN5B,39157,"MARECHAL JUIN",,47.449933,-0.567879,,,0,place_MAREJU,,1
MALAQUAI,38447,"MALAQUAIS",,47.444369,-0.490370,,,0,place_MALAQU,,0
MALAQU-E,27851,"MALAQUAIS",,47.444013,-0.490241,,,0,place_MALAQU,,1
MALBOI-E,576278,"MALBOIRE",,47.481774,-0.413922,,,0,place_MALBOI,,0
MALBOIRE,671943,"MALBOIRE",,47.481863,-0.414045,,,0,place_MALBOI,,0
MALEMBAR,753,"ZI TRELAZE - MALEMBARDIERES",,47.451656,-0.473425,,,0,place_MALEMB,,0
MALEMB-E,1504,"ZI TRELAZE - MALEMBARDIERES",,47.451650,-0.473398,,,0,place_MALEMB,,0
MALNOUE,193265,"MALNOUE",,47.369096,-0.517249,,,0,place_MALNOU,,0
MALNOU-E,863688,"MALNOUE",,47.369009,-0.517156,,,0,place_MALNOU,,0
MANSIO-E,211544,"MANSION",,47.477099,-0.588032,,,0,place_MANSIO,,1
MANSION,757176,"MANSION",,47.477068,-0.588244,,,0,place_MANSIO,,1
MAPTCEAR,402751,"MAIRIE DES PONTS DE CE",,47.425279,-0.523583,,,0,place_PONTSC,,0
MAPTSCE,9963,"MAIRIE DES PONTS DE CE",,47.425279,-0.523583,,,0,place_PONTSC,,0
MAREJU-E,17469,"MARECHAL JUIN",,47.449747,-0.568123,,,0,place_MAREJU,,1
MARIAN-E,28799,"MARIANNE",,47.450058,-0.531100,,,0,place_MARIAN,,1
MARIANNE,6575,"MARIANNE",,47.450169,-0.531088,,,0,place_MARIAN,,1
MARMIT-E,266529,"MARMITIÈRE",,47.466692,-0.490715,,,0,place_MARMIT,,0
MARMITIE,28460,"MARMITIÈRE",,47.466682,-0.490557,,,0,place_MARMIT,,0
MAROTT-E,3203,"MAROTTIERES",,47.536270,-0.568630,,,0,place_MAROTT,,0
MAROTTIE,10301,"MAROTTIERES",,47.536321,-0.568907,,,0,place_MAROTT,,0
MARSAULA,547381,"MARSAULAIE",,47.415556,-0.343703,,,0,place_MARSAU,,0
MASGEM-E,29461,"MAIRIE DE SAINTE GEMMES",,47.422881,-0.556596,,,0,place_MAIRSG,,1
MASGEMME,3967,"MAIRIE DE SAINTE GEMMES",,47.422772,-0.556545,,,0,place_MAIRSG,,1
MASJLI-E,20082,"MAIRIE DE SAINT JEAN DE LINIERES",,47.458643,-0.658927,,,0,place_STJEMA,,0
MASJLIN,20807,"MAIRIE DE SAINT JEAN DE LINIERES",,47.458073,-0.658441,,,0,place_STJEMA,,0
MASSON,12311,"MASSON",,47.531740,-0.567494,,,0,place_CANTEN,,0
MASSON-E,16344,"MASSON",,47.532101,-0.567767,,,0,place_CANTEN,,0
MASTEL-E,17386,"MASTELLE",,47.529387,-0.591988,,,0,place_MASTEL,,1
MASTELLE,16341,"MASTELLE",,47.529427,-0.592483,,,0,place_MASTEL,,1
MASTSY,460558,"MAIRIE DE SAINT SYLVAIN",,47.519873,-0.471085,,,0,place_GARD-D,,1
MATE25-E,11509,"CHU - HOPITAL",,47.480652,-0.554831,,,0,place_MATER,,0
MATER89,10739,"MARTINIERE",,47.608591,-0.563632,,,0,place_MARTI,,0
MATERN25,700,"MARTINIERE",,47.608553,-0.563781,,,0,place_MARTI,,0
MAUFINE,36835,"MAUFINEE",,47.502189,-0.589171,,,0,place_MAUFIN,,1
MAUFIN-E,17293,"MAUFINEE",,47.502602,-0.588821,,,0,place_MAUFIN,,1
MAUPER-E,24902,"MAUPERTHUIS",,47.433634,-0.485702,,,0,place_MAUPER,,0
MAUPERTH,5939,"MAUPERTHUIS",,47.433899,-0.485588,,,0,place_MAUPER,,0
MAURIAC,17599,"MALRAUX",,47.457459,-0.473549,,,0,place_MALRAU,,1
MAURIA-E,24260,"MALRAUX",,47.457624,-0.473336,,,0,place_MALRAU,,1
MBRIAN-E,380053,"MARIUS BRIANT",,47.474045,-0.577449,,,0,place_MBRIAN,,1
MBRIANT,809387,"MARIUS BRIANT",,47.473963,-0.577590,,,0,place_MBRIAN,,1
MEIG34-E,7347,"EGLISE DE LA MEIGNANNE",,47.519711,-0.667550,,,0,place_MEIGNA,,0
MEIGNA34,22128,"EGLISE DE LA MEIGNANNE",,47.519273,-0.667865,,,0,place_MEIGNA,,0
MEIGNA-E,11052,"LA MEIGNANNE",,47.484411,-0.582622,,,0,place_RUMEIG,,1
MEIGNANN,10399,"LA MEIGNANNE",,47.483984,-0.582208,,,0,place_RUMEIG,,1
MELGRA-E,5864,"MELGRANI",,47.477923,-0.591616,,,0,place_MELGRA,,0
MELGRANI,9954,"MELGRANI",,47.477777,-0.592090,,,0,place_MELGRA,,0
MEMBMA-E,3254,"MAIRIE DE LA MEMBROLLE",,47.560763,-0.672784,,,0,place_MEMBRO,,0
MEMBRO-E,26396,"BOURG DE LA MEMBROLLE",,47.558425,-0.669713,,,0,place_MEMBOU,,0
MEMBROLL,3150,"BOURG DE LA MEMBROLLE",,47.558544,-0.670130,,,0,place_MEMBOU,,0
MEMMAIR,4208,"MAIRIE DE LA MEMBROLLE",,47.560825,-0.673070,,,0,place_MEMBRO,,0
MENA-E,6305,"MENARD",,47.445717,-0.493686,,,0,place_MENARD,,1
MENARD,20226,"MENARD",,47.445845,-0.493867,,,0,place_MENARD,,0
MENDES-E,25308,"MENDES FRANCE",,47.472945,-0.545600,,,0,place_MENDSU,,1
MENDESFR,10353,"MENDES FRANCE",,47.472555,-0.546239,,,0,place_MENDSU,,1
MERCIE-E,11750,"MERCIER",,47.492614,-0.458460,,,0,place_MERCIE,,0
MERCIER,7042,"MERCIER",,47.492649,-0.458743,,,0,place_MERCIE,,0
MERMOZ,21926,"COLLEGE MERMOZ",,47.451897,-0.566805,,,0,place_MERMOZ,,1
MERMOZ-E,432615,"COLLEGE MERMOZ",,47.451842,-0.566699,,,0,place_MERMOZ,,1
MICHEL-E,5053,"MICHELET",,47.462862,-0.544243,,,0,place_MICHEL,,1
MICHELET,28118,"MICHELET",,47.463532,-0.545509,,,0,place_MICHEL,,1
MILLARDI,28787,"MILLARDIERE",,47.513771,-0.473682,,,0,place_MILLAR,,1
MILLAR-E,10309,"MILLARDIERE",,47.513919,-0.473746,,,0,place_MILLAR,,1
MILLCO-E,18612,"MILLOT SCOLAIRE",,47.456762,-0.533280,,,0,place_MILLOT,,0
MILLOT.,4218,"SAUMUROISE",,47.457313,-0.532501,,,0,place_SAUMUR,,1
MILLOTCO,6963,"MILLOT SCOLAIRE",,47.456943,-0.533423,,,0,place_MILLOT,,0
MILLOT-E,2926,"SAUMUROISE",,47.456802,-0.531904,,,0,place_SAUMUR,,1
MINDIE-E,452383,"CHEMIN DE LA MINDIERE",,47.440089,-0.630436,,,0,place_MINDIE,,0
MINDIERE,800356,"CHEMIN DE LA MINDIERE",,47.440000,-0.630454,,,0,place_MINDIE,,0
MIRABEAU,9907,"MIRABEAU",,47.460082,-0.550322,,,0,place_MIRABE,,1
MIRABE-E,9418,"MIRABEAU",,47.459474,-0.548839,,,0,place_MIRABE,,1
MIRBEAU,28498,"MIRBEAU",,47.488222,-0.510787,,,0,place_MIRBEA,,0
MIRBE-E,15613,"MIRBEAU",,47.488428,-0.509992,,,0,place_MIRBEA,,0
MLYAUT-E,22959,"MARECHAL LYAUTEY",,47.491833,-0.583737,,,0,place_MLYAU,,1
MLYAUTEY,15814,"MARECHAL LYAUTEY",,47.491712,-0.583773,,,0,place_MLYAU,,1
MOLIER10,19106,"MOLIERE",,47.473889,-0.555322,,,0,place_MOLIER,,1
MOLINE-E,25255,"MOLINERIE",,47.521410,-0.666726,,,0,place_MOLINE,,0
MOLINERI,8190,"MOLINERIE",,47.521471,-0.666890,,,0,place_MOLINE,,0
MON1,7834,"MONGAZON",,47.460963,-0.528672,,,0,place_MONGAZ,,1
MONCEA-E,810372,"MONCEAU",,47.472331,-0.389562,,,0,place_MONCEA,,0
MONCEAU,698763,"MONCEAU",,47.472424,-0.389729,,,0,place_MONCEA,,0
MONGELIE,313094,"LA MONGELIERE",,47.585979,-0.412381,,,0,place_MONGEL,,0
MONNAIE,643212,"LA MONNAIE",,47.445158,-0.512411,,,0,place_MONNAI,,0
MONNAI-E,228036,"LA MONNAIE",,47.445042,-0.512496,,,0,place_MONNAI,,0
MONNIE-E,2398,"MONNIER",,47.402594,-0.525298,,,0,place_MONNIE,,1
MONNIER,1582,"MONNIER",,47.403184,-0.525010,,,0,place_MONNIE,,1
MONOD,15527,"MONOD",,47.478725,-0.636641,,,0,place_MONOD,,1
MONOD-E,20101,"MONOD",,47.478985,-0.636379,,,0,place_MONOD,,1
MONPEV-E,4984,"MONPLAISIR",,47.490664,-0.527347,,,0,place_MONPLA,,0
MONPL AR,2607,"MONPLAISIR",,47.491150,-0.528297,,,0,place_MONPLA,,1
MONPL22,7399,"MONPLAISIR",,47.491047,-0.527690,,,0,place_MONPLA,,1
MONPLAIS,4795,"MONPLAISIR",,47.491150,-0.528297,,,0,place_MONPLA,,1
MONPR -E,15116,"MONPROFIT",,47.474540,-0.567088,,,0,place_PMONPR,,1
MONPRO-E,29694,"MONPROFIT",,47.474342,-0.566696,,,0,place_PMONPR,,1
MONPROF.,29382,"MONPROFIT",,47.474262,-0.566607,,,0,place_PMONPR,,1
MONPROFI,18765,"MONPROFIT",,47.474657,-0.567518,,,0,place_PMONPR,,1
MONTAI-E,19218,"MONTAIGNE",,47.469498,-0.531587,,,0,place_MONTAI,,0
MONTAIG,11328,"MONTAIGNE",,47.470787,-0.531421,,,0,place_MONTAI,,1
MONTCA-E,18547,"MONT CASSIN",,47.447152,-0.569576,,,0,place_MONTCA,,1
MONTCASB,13329,"MONT CASSIN",,47.447246,-0.569376,,,0,place_MONTCA,,1
MONTEC-E,16464,"MONTECLAIR",,47.464406,-0.604797,,,0,place_MONTEC,,1
MONTECLA,15647,"MONTECLAIR",,47.464498,-0.604803,,,0,place_MONTEC,,1
MONTES-E,16671,"MONTESQUIEU",,47.473792,-0.579208,,,0,place_MONTES,,0
MONTESQU,27063,"MONTESQUIEU",,47.473696,-0.580367,,,0,place_MONTES,,0
MONTHIBE,4518,"MONTHIBERT",,47.444740,-0.473878,,,0,place_MONTHI,,1
MONTHI-E,5661,"MONTHIBERT",,47.444623,-0.473302,,,0,place_MONTHI,,1
MONTREP,27125,"REPUBLIQUE MONTREUIL",,47.528839,-0.611208,,,0,place_MONREP,,1
MOREL,6292,"MOREL",,47.474901,-0.608484,,,0,place_MOREL,,1
MOREL-E,6741,"MOREL",,47.474985,-0.608520,,,0,place_MOREL,,1
MORELE-E,4569,"MORELLERIE",,47.451234,-0.544820,,,0,place_MORELL,,1
MORELI-E,6659,"MORELLERIE",,47.451671,-0.545334,,,0,place_MORELL,,1
MORELL,10611,"MORELLERIE",,47.453005,-0.545092,,,0,place_MORELL,,1
MORELL-E,16834,"MORELLERIE",,47.452732,-0.545147,,,0,place_MORELL,,1
MORELLER,495,"MORELLERIE",,47.451387,-0.544936,,,0,place_MORELL,,1
MORELLIE,5810,"MORELLERIE",,47.451809,-0.545323,,,0,place_MORELL,,1
MORET-E,25664,"MORETTE",,47.604393,-0.560887,,,0,place_MORETT,,0
MORETT,2925,"MORETTE",,47.604318,-0.561001,,,0,place_MORETT,,0
MORICI-E,60430,"MORICIERE",,47.485166,-0.357232,,,0,place_MORICI,,0
MORICIER,359213,"MORICIERE",,47.485096,-0.357342,,,0,place_MORICI,,0
MORLIE-E,18333,"MORLIÈRE",,47.461561,-0.482348,,,0,place_MORLIE,,1
MORLIERE,17581,"MORLIÈRE",,47.461534,-0.482512,,,0,place_MORLIE,,1
MORSUB,850214,"MOREL",,47.474910,-0.607334,,,0,place_MOREL,,0
MORSU-E,77571,"MOREL",,47.475030,-0.607321,,,0,place_MOREL,,0
MOULANDE,871271,"MOULIN DES LANDES",,47.530060,-0.476338,,,0,place_MOULAN,,0
MOULAN-E,186690,"MOULIN DES LANDES",,47.530148,-0.476364,,,0,place_MOULAN,,0
MOULINER,917875,"LA MOULINERIE",,47.592385,-0.421864,,,0,place_MOULI,,0
MOULINMA,32614,"MOULIN MARCILLE",,47.433767,-0.500566,,,0,place_MOULIN,,1
MOUMA-E,19608,"MOULIN MARCILLE",,47.433756,-0.500578,,,0,place_MOULIN,,1
MOUNLYCE,24085,"MOUNIER LYCEE",,47.490890,-0.526878,,,0,place_MOUNLY,,0
MOUNLY-E,3200,"MOUNIER LYCEE",,47.490896,-0.526917,,,0,place_MOUNLY,,0
MPLAIS-E,4333,"MONPLAISIR PLESSIS GRAMMOIRE",,47.499763,-0.428812,,,0,place_MPLAIS,,0
MPLAISIR,9967,"MONPLAISIR PLESSIS GRAMMOIRE",,47.499420,-0.430363,,,0,place_MPLAIS,,0
MURIER,810277,"LE MURIER",,47.514058,-0.376578,,,0,place_MURIER,,0
MURS  AR,23315,"MURS ERIGNE",,47.395471,-0.555684,,,0,place_MURS,,0
MURSERIG,22074,"MURS ERIGNE",,47.395497,-0.555668,,,0,place_MURS,,0
MURSHDV,7383,"HOTEL DE VILLE MURS ERIGNE",,47.401767,-0.536509,,,0,place_HOTELD,,1
MURSHV-E,30163,"HOTEL DE VILLE MURS ERIGNE",,47.401887,-0.537197,,,0,place_HOTELD,,1
MUSSET,21453,"MUSSET",,47.473724,-0.539747,,,0,place_MUSSET,,1
MUSSET-E,22824,"MUSSET",,47.473624,-0.538720,,,0,place_MUSSET,,1
MUTUAL-E,25011,"MUTUALITE",,47.455262,-0.540817,,,0,place_MUTUAL,,1
MUTUALIT,32144,"MUTUALITE",,47.455800,-0.540826,,,0,place_MUTUAL,,1
MVIGNE,358268,"MARCEL VIGNE",,47.475012,-0.582192,,,0,place_MVIGNE,,1
MVIGNE-E,803997,"MARCEL VIGNE",,47.475158,-0.582418,,,0,place_MVIGNE,,1
NARCE,424467,"LYCEE NARCE",,47.444599,-0.427490,,,0,place_NARCE,,0
NARCE-E,672229,"LYCEE NARCE",,47.444554,-0.427475,,,0,place_NARCE,,0
NDAMELAC,23915,"NOTRE DAME DU LAC",,47.479640,-0.589814,,,0,place_NDDLAC,,1
NDAMLA-E,24523,"NOTRE DAME DU LAC",,47.479713,-0.589767,,,0,place_NDDLAC,,1
NONNA-E,8443,"LES NONNAINS",,47.586766,-0.423518,,,0,place_NONNAI,,0
NONNAINS,17013,"LES NONNAINS",,47.586923,-0.423601,,,0,place_NONNAI,,0
NOUE-E,25919,"NOUELLE",,47.544871,-0.669649,,,0,place_NOUELL,,0
NOUELLE,27066,"NOUELLE",,47.544926,-0.669710,,,0,place_NOUELL,,0
NOYANT,207687,"NOYANT",,47.563367,-0.545658,,,0,place_NOYANT,,0
NOYANT-E,832846,"NOYANT",,47.563318,-0.545795,,,0,place_NOYANT,,0
NOYAU,40211,"LE NOYAU",,47.512630,-0.365560,,,0,place_NOYAU,,0
NOZAY,32625,"NOZAY",,47.487728,-0.532076,,,0,place_NOZAY,,1
NOZAY -E,837,"NOZAY",,47.487661,-0.531940,,,0,place_NOZAY,,1
OFFTOU-E,3776,"OFFICE DE TOURISME",,47.469181,-0.557585,,,0,place_OFFTOU,,1
OFFTOURI,26477,"OFFICE DE TOURISME",,47.468866,-0.558122,,,0,place_OFFTOU,,1
OLIVERAI,4722,"OLIVERAIE",,47.427215,-0.712621,,,0,place_OLIVER,,0
OLIVER-E,28837,"OLIVERAIE",,47.427336,-0.712662,,,0,place_OLIVER,,0
OREEBOIS,78210,"L'OREE DES BOIS",,47.508384,-0.378844,,,0,place_OREEBO,,0
ORGEM2-E,29706,"ORGEMONT",,47.447803,-0.542207,,,0,place_ORGEMO,,0
ORGEMONT,13154,"ORGEMONT",,47.447157,-0.542557,,,0,place_ORGEMO,,0
ORMEAU-E,18420,"ORMEAUX",,47.480040,-0.519069,,,0,place_ORMEAU,,1
ORMEAUX,17473,"ORMEAUX",,47.479954,-0.519738,,,0,place_ORMEAU,,1
P_BARD-E,153707,"BARBREAU",,47.472109,-0.591117,,,0,place_BARBRE,,1
P_CNFP-E,370303,"CNFPT",,47.471848,-0.600531,,,0,place_CNFPT,,1
P_MONG-E,260310,"MONGAZON déviation",,47.460673,-0.526921,,,0,place_MONGAZ,,1
P_ROBIN,451188,"ROBIN",,47.475611,-0.593937,,,0,place_ROBIN,,0
P_RTEBRI,7528,"ROUTE DE BRIOLLAY",,47.485584,-0.533011,,,0,place_RBRIOL,,1
PAGNOL,229552,"PAGNOL",,47.554173,-0.668690,,,0,place_PAGNOL,,0
PAGNOL-E,548981,"PAGNOL",,47.554224,-0.668527,,,0,place_PAGNOL,,0
PALLAC-E,21568,"PALLACH",,47.445941,-0.558793,,,0,place_JANPAL,,1
PALLACH,22076,"PALLACH",,47.446169,-0.558998,,,0,place_JANPAL,,1
PALLUAU,227710,"PALLUAU",,47.425504,-0.335457,,,0,place_PALLUA,,0
P-ANJO-E,32708,"PETIT ANJOU",,47.444518,-0.614611,,,0,place_PETANJ,,0
P-ANJOU,24330,"PETIT ANJOU",,47.444976,-0.615264,,,0,place_PETANJ,,0
PAPERIE,25531,"PAPERIE",,47.468722,-0.507036,,,0,place_PAPERI,,1
PAPERI-E,26837,"PAPERIE",,47.468462,-0.506527,,,0,place_PAPERI,,1
PAQUERAI,88085,"LA PAQUERAIE",,47.481187,-0.410090,,,0,place_PAQUER,,0
PAQUER-E,22063,"PAQUERETTE",,47.485962,-0.649518,,,0,place_PAQUE,,0
PAQUERET,38080,"PAQUERETTE",,47.485840,-0.649478,,,0,place_PAQUE,,0
PAQURA-E,703249,"LA PAQUERAIE",,47.481102,-0.410135,,,0,place_PAQUER,,0
PARC,2377,"RONCEVAUX",,47.486741,-0.598696,,,0,place_PARC,,0
PARCEX-E,13525,"PARC EXPO CITE DE L'OBJET CONNECTE",,47.496987,-0.493407,,,0,place_EXPO,,1
PARCEXPO,12773,"PARC EXPO CITE DE L'OBJET CONNECTE",,47.496892,-0.494157,,,0,place_EXPO,,1
PARCGA-E,16675,"GARENNE",,47.478341,-0.576503,,,0,place_GARENN,,1
PARCGARE,1681,"GARENNE",,47.478340,-0.576653,,,0,place_GARENN,,1
PARMEN-E,7606,"PARMENTIER",,47.453104,-0.518549,,,0,place_PARMEN,,0
PARMENTI,3753,"PARMENTIER",,47.453204,-0.518622,,,0,place_PARMEN,,0
PASQUEL,922466,"LA PASQUELERIE",,47.510651,-0.353188,,,0,place_PASQUE,,0
PASTEU-E,26529,"PASTEUR",,47.467113,-0.492969,,,0,place_SBPAS,,1
PASTEUR,25811,"PASTEUR",,47.466988,-0.493065,,,0,place_SBPAS,,1
PATIO,680234,"PATIO",,47.510719,-0.651796,,,0,place_PATIO,,0
PATIO-E,129375,"PATIO",,47.510819,-0.651733,,,0,place_PATIO,,0
PATIS,2076,"PATIS ST LEGER",,47.464623,-0.706898,,,0,place_PATIS,,0
PATIS-E,29802,"PATIS ST LEGER",,47.464757,-0.707047,,,0,place_PATIS,,0
PATNOIRE,31383,"PAUL BERT",,47.466318,-0.552460,,,0,place_PATINO,,1
PATTON,8271,"PATTON",,47.473342,-0.591630,,,0,place_PATTON,,0
PATTON-E,9022,"PATTON",,47.473440,-0.591641,,,0,place_PATTON,,0
PATUR-E,23972,"PATUREAUX",,47.434015,-0.527906,,,0,place_PATURO,,1
PATUREAU,20375,"PATUREAUX",,47.433815,-0.528022,,,0,place_PATURO,,1
PAUGE-E,30126,"PAUGER",,47.483216,-0.677825,,,0,place_PAUGER,,0
PAUGER,23604,"PAUGER",,47.482873,-0.678318,,,0,place_PAUGER,,0
PAVILL-E,7849,"PAVILLON",,47.465940,-0.620976,,,0,place_PAVILL,,0
PAVILLO,3922,"PAVILLON",,47.465368,-0.621756,,,0,place_PAVILL,,0
PCOUBE-E,6322,"COUBERTIN",,47.462452,-0.532314,,,0,place_PCOUBE,,0
PCOUBERT,27982,"COUBERTIN",,47.462415,-0.532468,,,0,place_PCOUBE,,0
PEGARDE,21733,"PETITE GARDE",,47.508358,-0.588143,,,0,place_PEGARD,,1
PEGARD-E,22451,"PETITE GARDE",,47.508405,-0.587936,,,0,place_PEGARD,,1
PELEGL-E,21148,"EGLISE DE PELLOUAILLES",,47.521494,-0.443926,,,0,place_PELEGL,,0
PELEGLIS,27979,"EGLISE DE PELLOUAILLES",,47.521613,-0.444059,,,0,place_PELEGL,,0
PELLEG-E,243747,"EGLISE DE PELLOUAILLES",,47.522438,-0.443502,,,0,place_PELEGL,,0
PELLER-E,13867,"PELLERINIERE",,47.460197,-0.487390,,,0,place_PELERI,,1
PELLERI,10802,"PELLERINIERE",,47.460693,-0.488233,,,0,place_PELERI,,1
PELMAI-E,29474,"MAIRIE DE PELLOUAILLES",,47.521729,-0.439407,,,0,place_PELMAI,,0
PELSTADE,26074,"STADE DE PELLOUAILLES",,47.523240,-0.438945,,,0,place_PELSTA,,0
PELSTA-E,22112,"STADE DE PELLOUAILLES",,47.523349,-0.438834,,,0,place_PELSTA,,0
PELUAU,16,"PELUAU",,47.489685,-0.567483,,,0,place_PELUAU,,1
PELUAU-E,22717,"PELUAU",,47.489426,-0.567792,,,0,place_PELUAU,,0
P-ELYS-E,189856,"ÉLYSÉE",,47.472256,-0.585115,,,0,place_ELYSEE,,1
PEPIN AR,824564,"GARE DE TRELAZE",,47.452152,-0.469599,,,0,place_GARTRE,,1
PEPINI-E,11360,"GARE DE TRELAZE",,47.452156,-0.469606,,,0,place_GARTRE,,1
PEPINIER,10185,"GARE DE TRELAZE",,47.452448,-0.470017,,,0,place_GARTRE,,1
PERAUD-E,16124,"PERRAUDIERE ZA",,47.436263,-0.700228,,,0,place_PERR36,,0
PERAUDIE,11921,"PERRAUDIERE ZA",,47.436242,-0.700040,,,0,place_PERR36,,0
PERDRIAU,4087,"PERDRIAU",,47.439734,-0.487372,,,0,place_PERDRI,,0
PERN23-C,31888,"PERRAUDIERE D 723",,47.438470,-0.698523,,,0,place_PERR23,,0
PERRAUDI,3443,"PERRAUDIERE ST LAMBERT",,47.482274,-0.681172,,,0,place_LAPERR,,0
PERRAU-E,19554,"PERRAUDIERE ST LAMBERT",,47.482390,-0.681416,,,0,place_LAPERR,,0
PERRBAUN,998251,"LA PERRAUDIERE",,47.508067,-0.346525,,,0,place_PERRBA,,0
PERRIE-E,215108,"PERRIERE",,47.463793,-0.408372,,,0,place_PERRIE,,0
PERRIERE,395213,"PERRIÈRE",,47.464766,-0.408236,,,0,place_PERRIE,,0
PERUSSAI,3238,"PERUSSAIE",,47.466084,-0.596350,,,0,place_PERUSS,,1
PERUSS-E,4185,"PERUSSAIE",,47.465529,-0.595458,,,0,place_PERUSS,,1
PETGUICH,607987,"LE PETIT GUICHARD",,47.526066,-0.479078,,,0,place_PETGUI,,0
PETGUI-E,993424,"LE PETIT GUICHARD",,47.526101,-0.478977,,,0,place_PETGUI,,0
PETIPA-E,21835,"PETITES PANNES",,47.488711,-0.569765,,,0,place_PETIPA,,1
PETIPANN,1322,"PETITES PANNES",,47.488778,-0.569979,,,0,place_PETIPA,,1
PETLANDE,11977,"PETITE LANDE",,47.550843,-0.580225,,,0,place_PETLAN,,0
PETLAN-E,13939,"PETITE LANDE",,47.554392,-0.581471,,,0,place_PETLAN,,0
PETPOR-E,6330,"PETIT PORT",,47.425732,-0.609708,,,0,place_PTPORT,,1
PETPORT,5677,"PETIT PORT",,47.425873,-0.609522,,,0,place_PTPORT,,1
PICAS,26555,"PICASSO",,47.452988,-0.523161,,,0,place_PICASO,,1
PICAS-E,43700,"PICASSO",,47.452891,-0.521960,,,0,place_PICASO,,1
PICASS-E,29141,"REPUBLIQUE TRELAZE",,47.450544,-0.505543,,,0,place_PICASS,,0
PICASSO,28488,"REPUBLIQUE TRELAZE",,47.450689,-0.505558,,,0,place_PICASS,,0
PIECE,22296,"PIECE DU MOULIN",,47.507364,-0.596622,,,0,place_PIECE,,1
PIECE-E,23406,"PIECE DU MOULIN",,47.507385,-0.596979,,,0,place_PIECE,,1
PIGEONDO,530735,"PIGEON D'OR",,47.469139,-0.389348,,,0,place_PIGEON,,0
PIGEON-E,33819,"PIGEON D'OR",,47.469058,-0.389172,,,0,place_PIGEON,,0
PIGNONIE,26672,"PIGNONIERE",,47.487289,-0.498263,,,0,place_PIGNON,,1
PIJUIG-E,98449,"PISCINE CAMILLE MUFFAT",,47.534191,-0.616522,,,0,place_PISJUI,,1
PIJUIGI,491332,"PISCINE CAMILLE MUFFAT",,47.534039,-0.616593,,,0,place_PISJUI,,1
PINEAUDI,370444,"LA PINEAUDIERE",,47.594372,-0.538185,,,0,place_PINEAU,,0
PINEAU-E,330880,"LA PINEAUDIERE",,47.594116,-0.538219,,,0,place_PINEAU,,0
PINELI-E,90368,"PINELIER",,47.523144,-0.743173,,,0,place_PINELI,,0
PINELIER,808769,"PINELIER",,47.522970,-0.743144,,,0,place_PINELI,,0
PINSON-E,24131,"PINSONS",,47.472569,-0.630313,,,0,place_PINSON,,0
PINSONS,23478,"PINSONS",,47.472499,-0.630124,,,0,place_PINSON,,0
PISANI,517316,"PISANI",,47.482962,-0.548944,,,0,place_PISANI,,0
PISCJU-E,6211,"PISCINE CAMILLE MUFFAT",,47.534191,-0.616522,,,0,place_PISJUI,,1
PISCJUIG,6185,"PISCINE CAMILLE MUFFAT",,47.534039,-0.616593,,,0,place_PISJUI,,1
PIVERD-E,31587,"PIVERDIERE",,47.437392,-0.609829,,,0,place_PIVERD,,1
PIVERDIE,30771,"PIVERDIERE",,47.437660,-0.609612,,,0,place_PIVERD,,1
PLACEN-E,19486,"PLACE NEY",,47.478569,-0.543098,,,0,place_PLACEN,,0
PLACENEY,18833,"PLACE NEY",,47.478347,-0.543534,,,0,place_PLACEN,,0
PLATEF-E,28725,"PLATEAU FLEURI",,47.529925,-0.597717,,,0,place_PLAFLE,,1
PLATFLEU,14518,"PLATEAU FLEURI",,47.529687,-0.598073,,,0,place_PLAFLE,,1
P-LBAR-E,475176,"LA BARRE",,47.472478,-0.597564,,,0,place_BARRE,,1
PLDEUR-E,30568,"PLACE DE L'EUROPE",,47.487755,-0.527171,,,0,place_EUROP5,,1
PLDULYCE,23588,"PLACE DU LYCEE",,47.466874,-0.544375,,,0,place_PLDULY,,1
PLDULY-E,29899,"PLACE DU LYCEE",,47.466909,-0.544598,,,0,place_PLDULY,,1
PLGBEL-E,386009,"BELLEVUE PLESSIS GRAMMOIRE",,47.504687,-0.440328,,,0,place_BELPLE,,0
PLGBELVU,340050,"BELLEVUE PLESSIS GRAMMOIRE",,47.504810,-0.440297,,,0,place_BELPLE,,0
PLGRAM-E,913474,"MAIRIE DU PLESSIS GRAMMOIRE",,47.501660,-0.430595,,,0,place_PLGRAM,,0
PLGRAMMO,17275,"MAIRIE DU PLESSIS GRAMMOIRE",,47.500975,-0.431636,,,0,place_PLGRAM,,0
PLMACE,32166,"MAIRIE DU PLESSIS MACE",,47.543828,-0.675138,,,0,place_PLEMAC,,0
PLMACE-E,17244,"MAIRIE DU PLESSIS MACE",,47.544088,-0.674758,,,0,place_PLEMAC,,0
PLOTIN-E,626210,"PLOTINIERE",,47.472141,-0.433089,,,0,place_PLOTIN,,0
PLOTINIE,32677,"PLOTINIERE",,47.472288,-0.433233,,,0,place_PLOTIN,,0
PLOTTI-E,90896,"PLOTTIERE",,47.522402,-0.610725,,,0,place_PLOTTI,,1
PLOTTIER,317864,"PLOTTIERE",,47.522342,-0.610902,,,0,place_PLOTTI,,1
P-MTSQ-E,673481,"MONTESQUIEU",,47.473471,-0.579703,,,0,place_MONTES,,1
POINCA-E,19244,"POINCARE",,47.500257,-0.589665,,,0,place_POINCA,,1
POINCARE,17808,"POINCARE",,47.499849,-0.589499,,,0,place_POINCA,,1
POIREL,14957,"POIREL",,47.461703,-0.562118,,,0,place_POIREL,,1
POIREL-E,5240,"POIREL",,47.461522,-0.562113,,,0,place_POIREL,,1
POISSO-E,16364,"COEUR DE MAINE",,47.472569,-0.556829,,,0,place_POISSO,,1
POISSONN,29689,"COEUR DE MAINE",,47.472316,-0.557167,,,0,place_POISSO,,1
POIVRE,690308,"POIVRE",,47.513532,-0.593046,,,0,place_POIVRE,,1
POIVRE-E,17887,"POIVRE",,47.513557,-0.593131,,,0,place_POIVRE,,1
POLE49,573557,"POLE 49",,47.489000,-0.491226,,,0,place_POLE49,,1
POLIGU-E,85187,"POLIGUET",,47.494567,-0.397164,,,0,place_POLIG,,0
POLIGUET,527584,"POLIGUET",,47.494498,-0.397273,,,0,place_POLIG,,0
